City_ID,City,Lat,Lon,Max Temp,Humidity,Cloudiness,Wind Speed,Country,Date
0,yellowknife,62.456,-114.3525,8.29,71,100,3.09,CA,1686629192
1,grytviken,-54.2811,-36.5092,-3.04,84,96,4.46,GS,1686629192
2,edinburgh of the seven seas,-37.0676,-12.3116,15.0,91,100,8.24,SH,1686629193
3,port-aux-francais,-49.35,70.2167,6.24,88,100,13.96,TF,1686629193
4,chernyshevskiy,63.0128,112.4714,17.89,28,4,0.38,RU,1686629193
5,pangoa,-12.1167,-73.0,19.49,100,53,0.8,PE,1686629193
6,pisco,-13.7,-76.2167,17.79,77,2,2.06,PE,1686629193
7,ta`u,-14.2336,-169.5144,27.71,73,65,7.33,AS,1686629193
8,lorengau,-2.0226,147.2712,28.92,80,72,4.9,PG,1686629194
9,klaksvik,62.2266,-6.589,6.51,69,95,0.97,FO,1686629194
10,luckeesarai,25.1833,86.0833,39.26,31,18,1.08,IN,1686629194
11,petropavlovsk-kamchatsky,53.0452,158.6483,23.33,29,0,6.0,RU,1686629194
12,minas de marcona,-15.2119,-75.1103,11.97,88,82,7.25,PE,1686629194
13,port maria,18.3685,-76.8895,28.98,93,8,4.46,JM,1686628925
14,hawaiian paradise park,19.5933,-154.9731,26.73,78,20,4.12,US,1686629194
15,christchurch,-43.5333,172.6333,12.4,76,20,1.79,NZ,1686628642
16,klyuchi,52.2667,79.1667,20.29,47,19,4.66,RU,1686629195
17,st. john's,47.5649,-52.7093,8.77,96,100,9.77,CA,1686629033
18,pelabuhanratu,-6.9875,106.5514,29.88,70,38,1.93,ID,1686629195
19,lazaro cardenas,17.9583,-102.2,26.86,79,1,2.71,MX,1686629195
20,papatowai,-46.5619,169.4708,10.77,85,26,2.23,NZ,1686629195
21,adamstown,-25.066,-130.1015,20.58,62,50,3.08,PN,1686629195
22,iqaluit,63.7506,-68.5145,-0.15,80,100,2.06,CA,1686629195
23,wailua homesteads,22.0669,-159.378,27.24,83,75,7.2,US,1686629195
24,ancud,-41.8697,-73.8203,4.37,89,71,2.57,CL,1686629196
25,blackmans bay,-43.0167,147.3167,13.18,75,100,3.58,AU,1686629196
26,hakui,36.8833,136.7833,29.03,76,90,3.7,JP,1686629196
27,hadibu,12.65,54.0333,28.32,79,100,10.68,YE,1686629196
28,hermanus,-34.4187,19.2345,16.0,88,100,13.07,ZA,1686629196
29,lihue,21.9789,-159.3672,27.58,78,75,7.2,US,1686629196
30,san patricio,28.017,-97.5169,28.92,88,66,5.7,US,1686629196
31,yuzhno-kurilsk,44.0306,145.8556,11.54,96,100,3.89,RU,1686629196
32,west island,-12.1568,96.8225,27.99,78,60,8.19,CC,1686629197
33,albany,42.6001,-73.9662,19.94,81,100,0.89,US,1686629034
34,aasiaat,68.7098,-52.8699,-2.24,87,41,2.08,GL,1686629197
35,kavieng,-2.5744,150.7967,29.13,75,46,4.11,PG,1686629197
36,kulhudhuffushi,6.6221,73.07,28.84,80,100,7.73,MV,1686628646
37,arteche,12.2645,125.4048,32.06,62,100,3.85,PH,1686629197
38,port saint john's,-31.6229,29.5448,15.01,62,84,3.31,ZA,1686629197
39,vorgashor,67.5833,63.95,8.66,57,100,6.08,RU,1686629197
40,thompson,55.7435,-97.8558,6.09,93,100,3.09,CA,1686628902
41,tingo maria,-9.2895,-76.0088,20.05,98,15,0.79,PE,1686629198
42,swift current,50.2834,-107.8014,23.45,43,0,2.57,CA,1686629198
43,port mathurin,-19.6833,63.4167,24.79,74,11,6.98,MU,1686629198
44,sitka,57.0531,-135.33,11.94,66,75,5.66,US,1686629198
45,tulun,54.5611,100.5792,10.42,93,100,3.88,RU,1686629198
46,liwale,-9.7667,37.9333,16.08,93,4,0.5,TZ,1686629199
47,newman,37.3138,-121.0208,23.13,64,51,0.89,US,1686629199
48,senatobia,34.6176,-89.9687,20.04,88,22,0.54,US,1686629199
49,kingston,17.997,-76.7936,28.53,78,20,6.69,JM,1686629072
50,malango,-2.9627,119.9001,26.48,71,82,1.71,ID,1686629199
51,stanley,54.868,-1.6985,10.95,94,100,1.54,GB,1686629199
52,tsiombe,-25.3,45.4833,16.8,94,8,4.12,MG,1686629199
53,new norfolk,-42.7826,147.0587,13.84,76,95,1.4,AU,1686629199
54,ribeira grande,38.5167,-28.7,19.32,97,8,2.24,PT,1686629200
55,enewetak,11.3474,162.3373,27.98,82,99,8.32,MH,1686629200
56,aykhal,66.0,111.5,15.92,33,10,7.79,RU,1686629200
57,richards bay,-28.783,32.0377,15.91,88,3,1.81,ZA,1686629200
58,chaiya,9.3862,99.1986,33.02,60,100,3.97,TH,1686629200
59,mgandu,-5.95,34.1333,12.73,91,53,2.21,TZ,1686629200
60,greymouth,-42.4667,171.2,12.07,66,15,0.59,NZ,1686629200
61,ambilobe,-13.2,49.05,20.75,86,1,1.14,MG,1686629200
62,puerto natales,-51.7236,-72.4875,2.15,93,100,2.16,CL,1686629201
63,kapuskasing,49.4169,-82.4331,17.05,82,100,3.6,CA,1686628802
64,sao jose da coroa grande,-8.8978,-35.1478,25.06,81,22,4.9,BR,1686629201
65,bethel,41.3712,-73.414,19.17,90,100,2.06,US,1686629062
66,nha trang,12.25,109.1833,34.0,57,98,0.87,VN,1686629201
67,ilulissat,69.2167,-51.1,1.01,75,75,1.54,GL,1686628953
68,cachoeira do sul,-30.0392,-52.8939,3.05,72,0,0.74,BR,1686629201
69,invercargill,-46.4,168.35,10.95,87,57,0.99,NZ,1686629201
70,tucuma,-0.1833,-50.05,24.14,94,100,2.52,BR,1686629202
71,atafu village,-8.5421,-172.5159,28.68,76,30,6.51,TK,1686629202
72,badger,64.8,-147.5333,16.4,44,75,8.75,US,1686629202
73,college,64.8569,-147.8028,16.44,45,75,8.75,US,1686629202
74,ushuaia,-54.8,-68.3,4.81,75,20,10.29,AR,1686628924
75,luderitz,-26.6481,15.1594,12.24,79,0,4.66,NA,1686629202
76,whitehorse,60.7161,-135.0538,15.17,24,96,8.49,CA,1686629202
77,nombre de dios,23.85,-104.2333,25.1,36,88,5.43,MX,1686629202
78,rio branco,-9.9747,-67.81,23.34,100,75,3.09,BR,1686629203
79,happy valley-goose bay,53.3168,-60.3315,9.91,64,92,1.49,CA,1686629203
80,acarau,-2.8856,-40.12,24.79,86,0,4.6,BR,1686629203
81,san antonio de pale,-1.4014,5.6325,24.33,88,98,2.93,GQ,1686629203
82,roma,43.2128,-75.4557,17.99,97,100,2.57,US,1686629203
83,remire-montjoly,4.9167,-52.2667,25.02,94,75,0.0,GF,1686629203
84,bay harbor,30.1471,-85.6146,26.65,73,0,0.89,US,1686629203
85,bredasdorp,-34.5322,20.0403,14.19,81,84,11.43,ZA,1686629204
86,chonchi,-42.6128,-73.8092,2.29,95,46,0.6,CL,1686629204
87,nelson bay,-32.7167,152.15,16.67,82,100,3.13,AU,1686629169
88,carnarvon,-24.8667,113.6333,20.63,29,0,5.83,AU,1686629204
89,oranjemund,-28.55,16.4333,11.96,82,0,1.24,NA,1686629204
90,luwingu,-10.2621,29.9271,12.87,71,24,1.62,ZM,1686629204
91,likasi,-10.9814,26.7333,17.98,50,81,0.79,CD,1686629204
92,cinisi,38.1562,13.1073,21.59,83,20,2.57,IT,1686629204
93,jamestown,42.097,-79.2353,13.77,100,75,3.09,US,1686629205
94,kapa'a,22.0752,-159.319,27.99,83,75,7.2,US,1686629205
95,nemuro,43.3236,145.575,11.91,96,100,5.4,JP,1686629205
96,kenora,49.8167,-94.4337,22.54,46,20,2.06,CA,1686628951
97,vilyuchinsk,52.9306,158.4028,24.15,47,0,1.34,RU,1686629205
98,manokwari,-0.8667,134.0833,27.42,79,65,2.05,ID,1686629205
99,dalyellup,-33.3986,115.6168,16.36,69,99,7.76,AU,1686629206
100,ouro preto do oeste,-10.7481,-62.2158,21.7,99,90,1.91,BR,1686629206
101,vlore,40.4667,19.4897,19.74,76,7,1.38,AL,1686629206
102,san pedro pochutla,15.7333,-96.4667,26.37,83,44,2.14,MX,1686629206
103,kirakira,-10.4544,161.9205,28.8,77,33,3.22,SB,1686629206
104,isafjordur,66.0755,-23.124,7.58,81,76,2.72,IS,1686629206
105,margaret river,-33.95,115.0667,16.13,70,100,8.08,AU,1686628687
106,hamilton,39.1834,-84.5333,13.8,81,0,2.06,US,1686629025
107,serhiyivka,46.0272,30.3768,15.2,89,100,8.24,UA,1686629207
108,tura,25.5198,90.2201,27.58,82,6,2.84,IN,1686629207
109,birao,10.2849,22.7882,23.85,84,100,1.51,CF,1686629207
110,itambacuri,-18.0311,-41.685,21.12,78,75,2.32,BR,1686629081
111,ryotsu-minato,38.0833,138.4333,22.74,77,34,0.91,JP,1686629207
112,las veredas,23.1388,-109.7075,28.0,73,0,1.54,MX,1686629207
113,saint-francois,46.4154,3.9054,13.71,100,87,1.54,FR,1686629207
114,tabou,4.423,-7.3528,25.42,76,90,3.03,CI,1686629207
115,melfort,52.8667,-104.6177,15.92,83,100,2.45,CA,1686629208
116,tutoia,-2.7619,-42.2744,25.19,89,32,5.07,BR,1686629178
117,la ronge,55.1001,-105.2842,14.44,51,6,2.9,CA,1686629208
118,saipan,15.1355,145.701,31.39,100,40,5.14,MP,1686629203
119,naze,28.3667,129.4833,21.68,90,100,2.68,JP,1686629208
120,aguas vermelhas,-15.7472,-41.46,15.64,96,0,1.23,BR,1686629208
121,kerikeri,-35.2268,173.9474,16.06,66,1,0.45,NZ,1686629208
122,waitangi,-43.9535,-176.5597,10.46,89,95,0.89,NZ,1686629209
123,gadzhiyevo,69.2551,33.3362,9.57,66,99,7.47,RU,1686629209
124,turkmenbasy,40.0222,52.9552,27.87,46,0,2.84,TM,1686629209
125,puerto ayora,-0.7393,-90.3518,26.42,92,72,2.68,EC,1686629209
126,broken hill,-31.95,141.4333,15.29,43,0,9.55,AU,1686629208
127,beau vallon,-20.4189,57.6953,24.56,77,25,4.46,MU,1686629209
128,kuna,43.4918,-116.4201,23.34,62,0,2.57,US,1686629209
129,bambanglipuro,-7.95,110.2833,28.91,70,98,6.17,ID,1686629209
130,ola,59.5833,151.2833,18.97,90,86,5.09,RU,1686629210
131,qaqortoq,60.7167,-46.0333,7.13,79,100,2.81,GL,1686629210
132,port lincoln,-34.7333,135.8667,13.95,59,96,9.27,AU,1686629065
133,linda,39.1277,-121.5508,23.19,61,0,3.6,US,1686629210
134,roswell,34.0232,-84.3616,19.42,89,0,3.6,US,1686629065
135,hilo,19.7297,-155.09,26.25,85,71,1.79,US,1686628783
136,kodiak,57.79,-152.4072,11.73,54,75,2.57,US,1686629022
137,piacabucu,-10.4056,-36.4344,24.36,87,33,4.07,BR,1686629183
138,as sulayyil,20.4607,45.5779,34.74,14,88,9.11,SA,1686629211
139,dabeiba,7.0017,-76.2672,24.39,99,100,0.63,CO,1686629211
140,namibe,-15.1961,12.1522,15.76,79,5,0.92,AO,1686629211
141,georgetown,5.4112,100.3354,31.97,66,20,3.6,MY,1686628930
142,sweet home,44.3976,-122.7362,23.62,83,3,0.87,US,1686629211
143,brigantine,39.4101,-74.3646,20.56,91,0,5.81,US,1686629211
144,antalaha,-14.9003,50.2788,21.09,82,17,2.0,MG,1686629211
145,lodeynoye pole,60.726,33.5531,14.3,56,11,2.21,RU,1686629212
146,celestun,20.8667,-90.4,28.41,84,0,5.16,MX,1686629212
147,valle de la pascua,9.2155,-66.0073,23.43,92,77,2.17,VE,1686629213
148,marau,-28.4492,-52.2,2.67,90,54,2.91,BR,1686629213
149,nurmes,63.5421,29.1397,13.16,50,100,4.19,FI,1686629213
150,afaahiti,-17.75,-149.2833,26.7,70,35,7.97,PF,1686629213
151,anadyr,64.75,177.4833,14.28,47,0,4.0,RU,1686629213
152,dabou,5.3256,-4.3769,24.9,79,66,3.47,CI,1686629214
153,al harithah,30.7186,47.7208,37.1,13,0,2.56,IQ,1686629214
154,ar rudayyif,34.3827,8.1555,22.43,52,44,7.11,TN,1686629214
155,olyokminsk,60.3736,120.4264,16.14,26,28,4.5,RU,1686629214
156,port alfred,-33.5906,26.891,13.99,60,100,3.58,ZA,1686629214
157,itoman,26.1247,127.6694,27.43,92,75,7.72,JP,1686628806
158,tazovsky,67.4667,78.7,1.83,87,100,8.02,RU,1686629214
159,bayevo,53.2833,80.7667,17.61,54,89,2.79,RU,1686629214
160,haiku-pauwela,20.9219,-156.3051,26.2,59,40,9.26,US,1686629215
161,maracas,-13.4411,-40.4308,14.13,90,0,1.65,BR,1686629188
162,keshorai patan,25.3,75.9333,36.21,33,12,6.25,IN,1686629215
163,tiksi,71.6872,128.8694,3.49,95,100,2.89,RU,1686629214
164,ust-nera,64.5667,143.2,8.29,76,100,2.94,RU,1686629215
165,al ghayzah,16.2079,52.176,29.45,81,100,1.25,YE,1686629215
166,keflavik,64.0049,-22.5624,5.24,93,0,2.57,IS,1686629216
167,hasaki,35.7333,140.8333,27.94,82,98,4.55,JP,1686629216
168,saurimo,-9.6608,20.3916,15.09,45,36,1.73,AO,1686629216
169,zhezqazghan,47.7833,67.7667,26.32,21,0,5.0,KZ,1686629216
170,ain taya,36.7933,3.2869,21.91,78,20,4.63,DZ,1686629216
171,ducheng,23.2373,111.5317,33.16,59,54,2.47,CN,1686629216
172,aldinga beach,-35.2793,138.4604,15.9,71,30,11.02,AU,1686629190
173,porto novo,6.4965,2.6036,23.96,83,98,2.54,BJ,1686629216
174,rio grande,-32.035,-52.0986,8.44,72,7,4.29,BR,1686629217
175,nova vicosa,-17.8919,-39.3719,22.1,90,0,3.24,BR,1686629217
176,walvis bay,-22.9575,14.5053,12.83,88,0,4.44,NA,1686629217
177,saguenay,48.4168,-71.0657,20.46,59,20,6.17,CA,1686628817
178,northam,51.0333,-4.2167,15.14,96,25,1.0,GB,1686629075
179,pangai,-19.8,-174.35,23.19,75,95,7.71,TO,1686629217
180,fale old settlement,-9.3852,-171.2468,28.48,78,17,6.95,TK,1686629217
181,ataq,14.5377,46.8319,29.24,31,92,2.12,YE,1686629217
182,gamboma,-1.8764,15.8644,22.5,89,100,1.57,CG,1686629218
183,pyapon,16.2833,95.6833,25.32,95,100,4.91,MM,1686629218
184,lemvig,56.5486,8.3102,14.52,67,21,3.4,DK,1686629218
185,saint-philippe,-21.3585,55.7679,22.84,72,0,1.76,RE,1686629218
186,marsh harbour,26.5412,-77.0636,27.26,79,49,4.68,BS,1686629112
187,noumea,-22.2763,166.4572,24.99,99,4,7.57,NC,1686628670
188,el obeid,13.1842,30.2167,28.64,51,43,4.5,SD,1686629218
189,ugbokpo,7.6565,7.8664,22.72,94,98,1.23,NG,1686629219
190,idri,27.5,13.2667,24.85,36,0,4.03,LY,1686629219
191,olonkinbyen,70.9221,-8.7187,1.79,90,100,10.19,SJ,1686629219
192,urucara,-2.5364,-57.76,24.24,93,65,0.8,BR,1686629219
193,kaa-khem,51.6833,94.7333,21.02,34,22,2.03,RU,1686629219
194,severo-yeniseyskiy,60.3725,93.0408,11.25,56,96,2.95,RU,1686629219
195,nagqu,31.5,92.0,10.75,48,96,3.54,CN,1686629219
196,ringkobing,56.0901,8.244,11.68,62,58,4.21,DK,1686629220
197,usogorsk,63.4106,48.6872,17.35,61,97,4.54,RU,1686629220
198,labrador city,52.9463,-66.9114,12.63,50,23,0.76,CA,1686629220
199,canutama,-6.5339,-64.3831,25.98,79,98,0.88,BR,1686629220
200,mrkonjic grad,44.4158,17.0861,11.1,99,60,0.6,BA,1686629220
201,port blair,11.6667,92.75,30.02,84,75,5.14,IN,1686629220
202,usinsk,65.9939,57.5281,12.25,86,93,5.68,RU,1686629221
203,la passe,45.5549,-0.8967,18.32,90,100,2.51,FR,1686629221
204,kangding,30.0513,101.9603,12.77,96,100,2.32,CN,1686629221
205,uturoa,-16.7333,-151.4333,27.06,75,23,7.79,PF,1686629221
206,arraial do cabo,-22.9661,-42.0278,21.68,91,2,3.03,BR,1686629221
207,ruteng,-8.6136,120.4721,23.83,51,47,0.95,ID,1686629221
208,media luna,20.1419,-77.435,26.26,83,18,2.39,CU,1686629221
209,belmonte,-15.8631,-38.8828,23.16,88,11,1.59,BR,1686629221
210,puerto baquerizo moreno,-0.9,-89.6,25.93,82,26,5.25,EC,1686629222
211,isangel,-19.55,169.2667,26.06,69,100,2.06,VU,1686628939
212,verkhnevilyuysk,63.4453,120.3167,16.88,27,6,4.41,RU,1686629222
213,portland,45.5234,-122.6762,27.32,54,0,2.57,US,1686628953
214,fortaleza,-3.7227,-38.5247,27.07,83,40,4.63,BR,1686629101
215,cabedelo,-6.9811,-34.8339,24.37,84,29,5.93,BR,1686629222
216,port elizabeth,-33.918,25.5701,14.5,68,0,3.6,ZA,1686629000
217,sala,34.0389,-6.8166,20.38,94,100,2.57,MA,1686629222
218,banlung,13.7468,107.0045,26.14,79,94,2.11,KH,1686629223
219,bubaque,11.2833,-15.8333,26.45,84,100,5.57,GW,1686629223
220,maracaibo,10.6317,-71.6406,27.73,79,35,3.4,VE,1686629223
221,thomaston,32.8882,-84.3266,23.29,64,0,2.57,US,1686629223
222,leh,34.1667,77.5833,12.8,46,57,1.28,IN,1686629223
223,carlos chagas,-17.7031,-40.7664,18.98,90,0,0.6,BR,1686629223
224,kalmunai,7.4167,81.8167,30.37,62,97,1.09,LK,1686629224
225,boguchany,58.3814,97.4531,20.22,32,99,3.63,RU,1686629224
226,yanchep,-31.55,115.6833,19.23,66,86,3.95,AU,1686629224
227,bamboo flat,11.7,92.7167,30.05,84,75,5.14,IN,1686629224
228,sept-iles,50.2001,-66.3821,16.7,74,69,2.57,CA,1686629224
229,rawson,-43.3002,-65.1023,4.44,54,88,2.1,AR,1686628849
230,polyarnyy,69.1989,33.4478,9.73,66,93,7.17,RU,1686629128
231,samarinda,-0.5,117.15,29.73,71,99,1.7,ID,1686628833
232,muan,34.9897,126.4714,24.22,52,99,4.67,KR,1686629225
233,sungai penuh,-2.0833,101.3833,27.27,54,39,0.88,ID,1686629225
234,balikpapan,-1.2675,116.8289,28.55,79,20,1.54,ID,1686629135
235,sierra grande,-41.606,-65.3557,4.94,47,28,1.79,AR,1686629225
236,papao,-17.75,-149.55,27.59,70,12,8.72,PF,1686629225
237,pariaman,-0.619,100.12,30.03,66,75,1.85,ID,1686629225
238,kourou,5.1552,-52.6478,25.03,90,88,2.6,GF,1686629226
239,taro,-8.3862,115.28,25.0,65,69,2.09,ID,1686629226
240,selfoss,63.9331,-20.9971,6.69,81,23,1.66,IS,1686629226
241,rongelap,11.1635,166.8941,27.92,81,96,8.4,MH,1686629226
242,summerside,46.3959,-63.7876,15.82,88,28,2.65,CA,1686629226
243,pendembu,8.1,-10.7,22.2,99,98,0.49,SL,1686629226
244,pontianak,-0.0333,109.3333,30.99,62,20,2.06,ID,1686629202
245,san pedro,14.35,121.0167,31.84,73,81,7.38,PH,1686629226
246,alice springs,-23.7,133.8833,20.68,26,0,3.6,AU,1686629227
247,brisas de zicatela,15.8369,-97.0419,30.29,74,20,1.54,MX,1686629227
248,bandar lampung,-5.4254,105.258,28.84,75,62,2.01,ID,1686629227
249,ghat,24.9647,10.1728,28.67,19,2,1.36,LY,1686629227
250,nar'yan-mar,67.6713,53.087,10.71,48,86,3.9,RU,1686629227
251,calama,-22.4667,-68.9333,5.16,39,0,1.09,CL,1686629227
252,kolyvan',55.3053,82.7391,15.79,54,100,1.49,RU,1686629227
253,punta arenas,-53.15,-70.9167,5.06,81,40,7.72,CL,1686629228
254,buala,-8.145,159.5921,29.27,73,32,2.2,SB,1686629228
255,dryden,49.7833,-92.7503,15.97,41,0,1.46,CA,1686629228
256,at taj,24.2049,23.2857,27.49,34,0,7.61,LY,1686629228
257,traralgon,-38.1833,146.5333,12.54,86,100,2.1,AU,1686629228
258,sakaiminato,35.55,133.2333,22.11,85,100,2.43,JP,1686629228
259,olinda,-8.0089,-34.8553,26.85,74,40,5.14,BR,1686629229
260,pemba,-12.974,40.5178,22.83,75,4,2.09,MZ,1686629229
261,touros,-5.1989,-35.4608,23.91,90,7,4.6,BR,1686629229
262,pandan,14.0453,124.1694,32.01,60,100,1.64,PH,1686629229
263,nova sintra,14.8667,-24.7167,21.22,85,100,9.54,CV,1686629229
264,kone,-21.0595,164.8658,24.51,54,21,2.99,NC,1686629229
265,machico,32.7,-16.7667,19.28,83,20,1.54,PT,1686629229
266,fada,9.5667,8.3,19.63,94,91,0.85,NG,1686629229
267,howrah,22.5892,88.3103,34.0,70,40,4.12,IN,1686629230
268,thames,-37.1333,175.5333,12.39,71,0,2.04,NZ,1686629230
269,yishui,35.7847,118.6281,28.72,32,29,4.32,CN,1686629230
270,antsiranana,-12.2787,49.2917,22.71,79,3,3.46,MG,1686629230
271,barah,13.7,30.3667,29.96,46,25,3.93,SD,1686629230
272,guerrero negro,27.9769,-114.0611,16.76,81,65,7.7,MX,1686629230
273,fisterra,42.9049,-9.2629,17.23,94,95,2.97,ES,1686629230
274,broome,42.2506,-75.833,16.83,89,100,6.17,US,1686628930
275,coquimbo,-29.9533,-71.3436,10.85,81,100,1.54,CL,1686628620
276,purwodadi,-7.0868,110.9158,30.2,63,95,2.68,ID,1686629231
277,morehead city,34.7229,-76.726,24.45,91,100,5.66,US,1686629004
278,bilibino,68.0546,166.4372,4.56,94,100,4.71,RU,1686629202
279,veraval,20.9,70.3667,29.3,82,100,13.31,IN,1686629231
280,marka,1.7159,44.7717,26.42,82,15,6.85,SO,1686629231
281,ardestan,33.3761,52.3694,29.83,22,1,1.83,IR,1686629231
282,bayganin,48.6947,55.8742,29.85,18,97,1.6,KZ,1686629231
283,talnakh,69.4865,88.3972,11.53,57,91,2.3,RU,1686629232
284,changling,44.2653,124.0005,25.76,37,9,2.81,CN,1686629232
285,freetown,8.484,-13.2299,24.91,86,98,2.21,SL,1686629232
286,vryburg,-26.9566,24.7284,3.47,83,0,2.76,ZA,1686629232
287,argo,37.6333,22.7333,18.77,75,82,1.53,GR,1686629232
288,pointe-noire,-4.7761,11.8635,22.85,93,31,2.04,CG,1686629232
289,sassandra,4.95,-6.0833,25.09,78,100,2.7,CI,1686629232
290,odda,60.0691,6.5457,15.43,62,90,0.77,NO,1686629232
291,cabo san lucas,22.8909,-109.9124,27.81,55,2,6.0,MX,1686628801
292,sao vicente,-23.9631,-46.3919,22.21,26,100,0.89,BR,1686629047
293,flying fish cove,-10.4217,105.6791,27.82,83,75,5.14,CX,1686629233
294,gunjur,13.2019,-16.7339,27.04,83,40,2.57,GM,1686629233
295,redencao,-4.2258,-38.7306,22.45,94,1,0.51,BR,1686629233
296,huilong,31.8111,121.655,24.29,74,100,3.93,CN,1686629225
297,tual,-5.6667,132.75,27.06,81,100,8.74,ID,1686629233
298,garachico,28.7781,-17.7646,19.06,73,75,2.57,ES,1686629234
299,mahibadhoo,3.7833,72.9667,28.9,76,93,7.05,MV,1686629234
300,port augusta,-32.5,137.7667,16.98,43,33,8.62,AU,1686629234
301,vladimirskaya,44.5455,40.7933,18.22,94,100,1.31,RU,1686629234
302,mhamid,29.82,-5.72,25.28,26,0,1.68,MA,1686629235
303,juli,-16.2167,-69.45,2.84,69,63,1.1,PE,1686629235
304,nizhny tagil,57.9194,59.965,13.28,45,0,2.87,RU,1686629236
305,fort st. john,56.2499,-120.8529,18.54,62,69,0.95,CA,1686629213
306,san luis,-33.295,-66.3356,2.72,39,0,1.68,AR,1686629236
307,amahai,-3.3333,128.9167,28.33,86,99,3.56,ID,1686629236
308,son la,21.3167,103.9,24.42,90,100,1.64,VN,1686629236
309,zheleznogorsk-ilimskiy,56.5768,104.1217,13.25,47,100,2.34,RU,1686629237
310,jining,35.405,116.5814,33.29,24,2,1.62,CN,1686629237
311,yaren,-0.5472,166.916,28.36,76,99,2.81,NR,1686629237
312,gaogou,34.0175,119.1886,31.39,28,84,2.63,CN,1686629237
313,gorontalo,0.5412,123.0595,25.0,95,99,0.77,ID,1686629237
314,bardai,11.65,7.2333,22.22,86,59,2.32,NG,1686629237
315,oriximina,-1.7656,-55.8661,23.26,95,12,1.7,BR,1686629166
316,claveria,18.6074,121.0832,30.4,68,99,3.17,PH,1686629238
317,inebolu,41.9747,33.7608,18.81,90,95,1.94,TR,1686629238
318,le port,-20.9373,55.2919,24.38,84,7,3.8,RE,1686629238
319,port douglas,-16.4833,145.4667,24.4,75,40,3.9,AU,1686629238
320,mount gambier,-37.8333,140.7667,11.78,81,95,5.33,AU,1686629238
321,fort bragg,35.139,-79.006,22.91,91,100,2.57,US,1686628911
322,avarua,-21.2078,-159.775,25.03,88,40,6.17,CK,1686629239
323,geraldton,-28.7667,114.6,18.23,48,0,5.66,AU,1686629216
324,jian'ou,27.0469,118.3253,27.69,80,89,0.93,CN,1686629239
325,layou,13.2,-61.2667,26.35,80,23,5.13,VC,1686629239
326,longyearbyen,78.2186,15.6401,3.91,70,75,6.69,SJ,1686629239
327,lompoc,34.6391,-120.4579,16.68,83,100,2.68,US,1686629239
328,ceeldheer,3.8488,47.1806,25.96,84,53,7.42,SO,1686629239
329,booue,-0.0921,11.9385,21.99,99,90,0.89,GA,1686629240
330,znamenskoye,57.1281,73.8282,13.61,40,39,3.41,RU,1686629240
331,illizi,26.4833,8.4667,29.92,18,0,4.03,DZ,1686629240
332,yeppoon,-23.1333,150.7333,26.88,69,7,3.72,AU,1686629240
333,abepura,-2.6333,140.5833,27.45,78,40,2.57,ID,1686629240
334,twin falls,42.3505,-114.6445,18.94,68,0,1.54,US,1686629240
335,castillos,-34.1667,-53.8333,8.66,66,91,1.86,UY,1686629241
336,lebu,-37.6167,-73.65,7.69,69,0,5.46,CL,1686629241
337,belyy yar,53.6039,91.3903,20.94,52,0,1.0,RU,1686629241
338,argos orestiko,40.4667,21.2667,13.61,94,34,0.49,GR,1686629241
339,el fasher,13.6279,25.3494,27.66,51,97,0.81,SD,1686629241
340,chibuto,-24.6867,33.5306,17.15,78,53,1.58,MZ,1686629241
341,kiruna,67.8557,20.2251,5.51,75,100,0.51,SE,1686629241
342,shixing,24.9482,114.0657,30.25,66,55,1.55,CN,1686629242
343,gizo,-8.103,156.8419,28.77,76,13,4.32,SB,1686629242
344,weno,7.4515,151.8468,30.97,79,100,3.09,FM,1686629242
345,sittwe,20.15,92.9,27.44,84,100,4.0,MM,1686629242
346,kasongo-lunda,-6.4667,16.8167,20.29,95,71,0.66,CD,1686629242
347,plettenberg bay,-34.0527,23.3716,14.72,60,97,5.94,ZA,1686629242
348,whakatane,-37.9585,176.9854,15.84,60,5,2.24,NZ,1686629243
349,westport,41.1415,-73.3579,20.25,92,100,4.12,US,1686629072
350,susuman,62.7833,148.1667,10.02,82,100,3.75,RU,1686629243
351,baruun-urt,46.6806,113.2792,28.62,19,34,3.31,MN,1686629243
352,biltine,14.5333,20.9167,27.72,59,79,6.65,TD,1686629243
353,quellon,-43.1167,-73.6167,1.14,100,40,1.03,CL,1686629243
354,ambodifotatra,-16.9833,49.85,23.93,74,17,2.22,MG,1686629244
355,verdal,63.7933,11.4817,13.02,73,76,1.49,NO,1686629244
356,shevchenko,48.5,35.0,13.18,86,100,4.13,UA,1686629244
357,anuradhapura,8.3565,80.4173,30.84,59,89,6.48,LK,1686629244
358,knyaze-volkonskoye,48.4642,135.4567,22.19,48,15,3.76,RU,1686629244
359,chibougamau,49.9168,-74.3659,16.79,63,0,2.57,CA,1686629244
360,katsuren-haebaru,26.3369,127.8719,28.43,98,100,5.14,JP,1686629245
361,mount pleasant,32.7941,-79.8626,24.0,96,0,2.57,US,1686629245
362,longonjo,-12.9067,15.2533,12.54,54,5,1.06,AO,1686629245
363,caleta de carquin,-11.0925,-77.6267,20.08,80,38,6.34,PE,1686629245
364,paramonga,-10.6667,-77.8333,20.19,82,57,5.51,PE,1686629245
365,aripuana,-9.1667,-60.6333,24.73,79,76,1.18,BR,1686629245
366,sinan,34.8262,126.1086,20.23,73,99,3.33,KR,1686629246
367,ishigaki,24.3448,124.1572,26.19,90,100,8.66,JP,1686629246
368,crane,31.3974,-102.3501,30.49,15,2,4.41,US,1686629205
369,vuktyl,63.8567,57.3094,13.23,72,100,3.51,RU,1686629246
370,alloa,56.1159,-3.79,14.11,93,57,2.01,GB,1686629246
371,berezovyy,51.6667,135.7,23.2,43,23,3.41,RU,1686629246
372,talara,-4.5772,-81.2719,23.1,80,2,8.19,PE,1686629247
373,sault ste. marie,46.5168,-84.3333,10.16,100,100,8.23,CA,1686629142
374,brookings,44.3114,-96.7984,18.19,61,0,3.09,US,1686629247
375,gaalkacyo,6.7697,47.4308,24.84,73,76,9.44,SO,1686629179
376,sola,-13.8833,167.55,26.65,77,24,6.93,VU,1686629247
377,kruisfontein,-34.0033,24.7314,13.27,62,90,2.93,ZA,1686629247
378,avanigadda,16.0215,80.9181,37.3,33,73,7.12,IN,1686629247
379,peterhead,57.5058,-1.7981,13.58,96,99,3.24,GB,1686629247
380,praya,14.9215,-23.5087,25.3,69,0,5.66,CV,1686629248
381,tuy hoa,13.0833,109.3,32.15,56,99,4.41,VN,1686629248
382,luhansk,48.5671,39.3171,14.3,83,71,4.67,UA,1686629018
383,luganville,-15.5333,167.1667,25.66,85,66,4.66,VU,1686629248
384,kalpatta,11.6106,76.0822,25.46,72,93,2.05,IN,1686629248
385,chabahar,25.2919,60.643,30.6,67,100,2.62,IR,1686629248
386,kayangel,8.0823,134.7173,27.91,76,55,4.03,PW,1686629248
387,san matias,-16.3667,-58.4,11.8,84,100,4.33,BO,1686629248
388,sengkang,-4.1279,120.0297,30.27,65,79,3.87,ID,1686629249
389,kranuan,16.7067,103.0788,31.75,60,100,5.03,TH,1686629249
390,alexandria,31.2156,29.9553,21.82,75,0,1.05,EG,1686629249
391,koryazhma,61.3143,47.1691,17.53,54,80,3.64,RU,1686629249
392,daultala,33.1925,73.1413,36.35,24,7,3.18,PK,1686629249
393,palmer,42.1584,-72.3287,19.73,84,100,2.06,US,1686629250
394,preobrazheniye,42.9019,133.9064,16.03,86,100,1.59,RU,1686629250
395,korla,41.7597,86.1469,34.03,16,90,1.85,CN,1686629250
396,altai,46.3722,96.2583,14.01,57,86,4.12,MN,1686629250
397,moapa valley,36.5805,-114.4703,23.64,27,6,1.58,US,1686629250
398,sardarapat,40.1321,44.0097,23.53,51,59,0.26,AM,1686629250
399,tralee,52.2704,-9.7026,15.59,96,94,1.14,IE,1686629250
400,makar'yev,57.8797,43.8069,14.14,57,1,0.73,RU,1686629251
401,kabalo,-6.05,26.9167,21.74,71,85,1.04,CD,1686629251
402,turbat,26.0023,63.044,34.11,38,100,0.76,PK,1686629251
403,howard springs,-12.497,131.047,32.12,24,100,4.3,AU,1686629251
404,fortuna,40.5982,-124.1573,12.97,95,100,2.57,US,1686629039
405,breclav,48.759,16.882,11.72,81,0,2.55,CZ,1686629251
406,dolinsk,47.35,142.8,15.74,90,99,1.42,RU,1686629252
407,kudahuvadhoo,2.6708,72.8944,28.73,76,71,6.48,MV,1686629252
408,la'ie,21.6477,-157.9253,27.98,74,0,3.13,US,1686629252
409,ganjam,19.3833,85.0667,35.94,45,97,3.03,IN,1686629252
410,horta,38.5333,-28.6333,18.9,97,18,2.24,PT,1686629252
411,kovalam,8.3667,76.9967,28.05,78,75,2.06,IN,1686629252
412,vadso,70.0744,29.7487,10.49,66,40,9.77,NO,1686629252
413,dudinka,69.4058,86.1778,12.18,53,60,3.01,RU,1686629253
414,egilsstadir,65.2653,-14.3948,13.92,51,100,0.75,IS,1686629253
415,swakopmund,-22.6833,14.5333,12.77,91,0,0.45,NA,1686629253
416,revda,56.801,59.9303,11.63,44,0,2.29,RU,1686629253
417,aoulef,26.9667,1.0833,31.43,10,0,4.7,DZ,1686629253
418,dunay,42.8803,132.3375,15.21,86,90,3.03,RU,1686629253
419,eisfeld,50.4167,10.9167,12.91,70,0,1.46,DE,1686629253
420,lockhart,28.6194,-81.4426,28.41,78,0,4.63,US,1686629254
421,saint-pierre,-21.3393,55.4781,24.2,64,0,3.6,RE,1686629254
422,breyten,-26.3018,29.987,3.7,83,0,4.28,ZA,1686629254
423,vila do maio,15.1333,-23.2167,25.44,87,95,7.59,CV,1686629254
424,hithadhoo,-0.6,73.0833,28.86,70,72,3.4,MV,1686629254
425,boa vista,2.8197,-60.6733,24.99,94,40,1.03,BR,1686629254
426,lebyazh'ye,55.2689,66.4947,14.05,42,48,3.79,RU,1686629254
427,hauterive,46.0901,3.4459,15.42,97,96,0.33,FR,1686629238
428,la gi,10.6667,107.7833,30.79,66,97,5.13,VN,1686629255
429,prince albert,53.2001,-105.7677,15.69,81,70,0.73,CA,1686629255
430,saldanha,-33.0117,17.9442,14.9,84,100,7.95,ZA,1686629255
431,tadotsu,34.275,133.75,27.52,78,100,2.61,JP,1686629255
432,iwanai,42.9744,140.5089,19.47,88,96,0.39,JP,1686629255
433,mexico,15.0646,120.7198,29.84,58,77,6.38,PH,1686629074
434,sawakin,19.1059,37.3321,31.46,39,16,1.61,SD,1686629256
435,sibolga,1.7427,98.7792,30.48,63,46,2.01,ID,1686629256
436,chernyshevsk,52.5243,117.0174,20.77,55,100,4.78,RU,1686629256
437,beloyarskiy,63.7119,66.6722,10.79,42,60,3.22,RU,1686629256
438,kollum,53.277,6.1529,16.1,78,13,3.9,NL,1686629256
439,akureyri,65.6835,-18.0878,11.91,71,21,0.88,IS,1686629223
440,leava,-14.3,-178.1667,27.18,80,51,5.59,WF,1686629257
441,moyynkum,44.2914,72.9469,25.74,22,72,7.94,KZ,1686629257
442,udachny,66.4167,112.4,18.03,29,16,7.14,RU,1686629203
443,sale,34.0389,-6.8166,20.38,94,100,2.57,MA,1686629222
444,saudarkrokur,65.7461,-19.6394,8.36,83,7,2.88,IS,1686629257
445,tiquipaya,-17.3382,-66.2189,12.76,43,8,1.34,BO,1686629257
446,umm as sahik,26.6536,49.9164,37.08,37,0,4.28,SA,1686629258
447,bandon,51.7469,-8.7425,15.77,94,99,2.56,IE,1686629258
448,castro,-24.7911,-50.0119,12.12,97,100,5.54,BR,1686628843
449,holualoa,19.6228,-155.9522,25.99,83,75,6.69,US,1686629234
450,mermoz boabab,14.7065,-17.4758,25.19,84,97,3.15,SN,1686629259
451,dwarka,22.2394,68.9678,29.8,78,100,16.58,IN,1686629259
452,alofi,-19.0595,-169.9187,23.01,89,100,4.87,NU,1686629259
453,mata-utu,-13.2816,-176.1745,28.2,77,72,5.0,WF,1686629259
454,san ignacio,17.1561,-89.0714,26.45,89,3,2.2,BZ,1686629259
455,kargasok,59.0556,80.8572,10.19,51,69,5.23,RU,1686629259
456,hof,50.3167,11.9167,11.46,75,0,0.51,DE,1686629260
457,wodonga,-36.1167,146.8833,12.2,100,100,2.2,AU,1686629260
458,kalocsa,46.5264,18.9858,10.75,83,26,2.03,HU,1686629260
459,kenai,60.5544,-151.2583,8.97,76,100,3.6,US,1686629260
460,vieux-habitants,16.0589,-61.7659,25.76,79,23,5.6,GP,1686629261
461,neuves-maisons,48.6203,6.107,16.19,64,0,2.57,FR,1686629261
462,shobara,34.85,133.0167,27.13,61,100,1.58,JP,1686629261
463,queenstown,-31.8976,26.8753,6.0,63,48,5.26,ZA,1686629261
464,pyhajarvi,67.0701,27.2176,13.98,65,38,3.86,FI,1686629261
465,tofol,5.3248,163.0078,28.43,79,100,7.54,FM,1686629261
466,khouribga,32.9333,-6.6,16.06,68,46,2.92,MA,1686629261
467,murun-kuren,49.6342,100.1625,19.9,53,100,6.28,MN,1686629262
468,kovur,14.4833,79.9833,36.19,35,78,8.11,IN,1686629262
469,vila franca do campo,37.7167,-25.4333,19.23,99,100,4.29,PT,1686629262
470,la trinitaria,16.1167,-92.05,22.22,54,36,3.2,MX,1686629262
471,candelaria,13.9311,121.4233,30.22,59,100,2.64,PH,1686629262
472,konarka,19.9,86.1167,29.22,58,97,4.16,IN,1686629262
473,bathsheba,13.2167,-59.5167,27.34,94,40,4.63,BB,1686629262
474,acapulco de juarez,16.8634,-99.8901,29.9,74,40,2.57,MX,1686629259
475,north bend,43.4065,-124.2243,14.58,94,100,2.57,US,1686629115
476,utrik,11.2278,169.8474,27.79,81,60,8.29,MH,1686629263
477,kokopo,-4.352,152.2633,30.32,64,11,5.28,PG,1686629263
478,zanjan,36.6736,48.4787,23.27,36,3,1.87,IR,1686629263
479,anamosa,42.1083,-91.2852,17.03,90,88,1.11,US,1686629263
480,vilhena,-12.7406,-60.1458,18.2,99,96,2.43,BR,1686629263
481,codrington,-38.2667,141.9667,13.05,71,97,6.69,AU,1686629264
482,columbia falls,48.3725,-114.1815,19.82,64,0,3.09,US,1686629264
483,imam qasim,32.298,44.6828,35.16,18,6,4.82,IQ,1686629264
484,mil'kovo,55.6078,37.7956,13.56,66,1,4.09,RU,1686629264
485,pervomayskiy,53.2485,40.2871,10.05,74,100,7.14,RU,1686629264
486,pamandzi,-12.7967,45.2794,21.88,88,0,1.54,YT,1686629265
487,chelak,39.9203,66.8611,30.42,24,0,1.37,UZ,1686629265
488,eilenburg,51.4598,12.6334,12.85,73,2,0.12,DE,1686629265
489,east london,-33.0153,27.9116,15.52,44,0,8.75,ZA,1686629027
490,iskateley,67.6803,53.1512,10.64,47,84,3.91,RU,1686629265
491,tamanrasset,22.785,5.5228,26.95,29,20,2.06,DZ,1686628984
492,bor,56.3567,44.0669,13.96,62,0,3.57,RU,1686629265
493,constitucion,-35.3333,-72.4167,7.67,65,0,2.17,CL,1686629265
494,rurrenabaque,-14.4413,-67.5278,13.48,96,100,1.66,BO,1686629266
495,yinchuan,38.4681,106.2731,28.16,12,0,1.65,CN,1686629266
496,solleftea,63.1667,17.2667,13.92,59,65,3.16,SE,1686629266
497,skowhegan,44.7651,-69.7192,16.99,95,99,0.91,US,1686629094
498,madera,37.1666,-119.8343,25.05,59,80,1.63,US,1686629142
499,maragogi,-9.0122,-35.2225,24.84,82,33,5.15,BR,1686629090
500,santa cruz,-17.8,-63.1667,13.7,44,100,10.29,BO,1686629267
501,kavaratti,10.5669,72.642,29.56,76,96,9.43,IN,1686629124
502,rostovka,55.3842,71.8891,12.5,55,100,4.45,RU,1686629267
503,puerto ayacucho,5.6639,-67.6236,24.29,93,97,1.21,VE,1686629267
504,daru,-9.0763,143.2092,26.41,88,99,6.39,PG,1686629267
505,wamba,8.9333,8.6,22.19,94,100,1.8,NG,1686629267
506,margate,51.3813,1.3862,16.06,89,0,1.79,GB,1686629267
507,chulym,55.0997,80.9572,15.61,46,100,2.59,RU,1686629267
508,ibotirama,-12.1853,-43.2206,20.82,55,0,0.82,BR,1686629268
509,nago,26.5881,127.9761,28.47,96,100,4.44,JP,1686629268
510,balqash,46.8481,74.995,25.33,19,0,14.0,KZ,1686629268
511,byron bay,-28.65,153.6167,24.28,66,4,4.27,AU,1686629029
512,airuk,7.2772,168.8203,28.63,75,100,8.03,MH,1686629268
513,nagar,27.4333,77.1,39.58,26,0,7.09,IN,1686629269
514,waingapu,-9.6567,120.2641,28.89,52,52,7.19,ID,1686629269
515,mili,6.0815,171.735,28.17,80,100,7.57,MH,1686629269
516,tocopilla,-22.092,-70.1979,15.56,76,16,4.16,CL,1686628913
517,bocas del toro,9.3333,-82.25,25.68,82,100,1.79,PA,1686629269
518,midvagur,62.0511,-7.1939,6.46,87,92,0.51,FO,1686629269
519,aldan,58.6031,125.3894,3.85,95,100,0.96,RU,1686629269
520,kangaba,11.9333,-8.4167,24.15,84,56,0.75,ML,1686629269
521,abra pampa,-22.7205,-65.697,2.48,23,0,2.19,AR,1686629270
522,hachinohe,40.5,141.5,20.1,77,75,5.66,JP,1686629270
523,copiapo,-27.3667,-70.3333,9.83,88,0,0.51,CL,1686629270
524,masasi,-10.7167,38.8,16.04,89,5,0.72,TZ,1686629270
525,trakai,54.6333,24.9333,13.94,66,100,3.57,LT,1686629270
526,izki,22.9333,57.7667,37.86,15,100,1.12,OM,1686629270
527,palmas,-10.2128,-48.3603,23.93,73,0,1.03,BR,1686629271
528,irituia,-1.7711,-47.4381,22.24,99,28,1.44,BR,1686629271
529,hazorasp,41.3194,61.0742,25.91,12,10,5.16,UZ,1686629271
530,juan griego,11.0817,-63.9655,27.07,94,44,5.14,VE,1686629271
531,puerto madero,14.7208,-92.4215,26.11,100,75,2.57,MX,1686629271
532,dom pedrito,-30.9828,-54.6731,2.51,69,0,2.29,BR,1686629013
533,bogale,16.2833,95.4,25.08,97,100,4.94,MM,1686629272
534,sinabang,2.4803,96.3801,29.89,66,25,1.44,ID,1686629249
535,vorkuta,67.5,64.0,8.76,57,100,5.93,RU,1686629272
536,pasuquin,18.3328,120.6177,28.62,84,100,10.43,PH,1686629272
537,santa maria,-29.6842,-53.8069,3.0,72,1,0.66,BR,1686629272
538,anna regina,7.2644,-58.5077,26.31,83,85,3.54,GY,1686629272
539,ciudad melchor muzquiz,27.8833,-101.5167,31.69,47,68,1.85,MX,1686629273
540,ewo,-0.8725,14.8206,22.65,90,92,1.71,CG,1686629273
541,nagato,34.3833,131.2,24.29,76,100,1.1,JP,1686629273
542,northgate,39.2528,-84.5925,13.34,82,0,0.45,US,1686629273
543,neiafu,-18.65,-173.9833,24.38,83,75,3.09,TO,1686629273
544,cill airne,52.05,-9.5167,15.09,92,84,1.05,IE,1686629273
545,lamarque,-39.423,-65.7021,5.9,41,3,4.74,AR,1686629274
546,sohagpur,22.7,78.2,36.76,36,41,5.33,IN,1686629274
547,dakhla,23.6848,-15.958,21.03,91,5,6.4,EH,1686629274
548,santiago del torno,-17.9833,-63.3833,13.1,55,100,5.11,BO,1686629274
549,robore,-18.3333,-59.75,7.56,94,100,3.16,BO,1686629274
550,arkhangel'sk,64.5401,40.5433,17.92,50,70,5.04,RU,1686629274
551,nuuk,64.1835,-51.7216,0.34,100,100,0.51,GL,1686629275
552,rusera,25.75,86.0333,37.65,37,16,3.63,IN,1686629275
553,kill devil hills,36.0307,-75.676,22.21,90,15,5.58,US,1686629275
554,santa rosa de rio primero,-31.1523,-63.4019,5.4,46,94,2.56,AR,1686629275
555,tan-tan,28.438,-11.1032,20.07,91,20,6.5,MA,1686629275
556,srivardhan,18.0333,73.0167,29.27,78,43,8.46,IN,1686629275
557,tommot,58.9564,126.2925,5.46,94,100,1.04,RU,1686629275
558,basco,20.4487,121.9702,27.56,88,100,12.41,PH,1686629275
559,dengzhou,37.8086,120.7508,20.73,63,1,3.98,CN,1686629276
560,aswan,24.0934,32.907,32.03,22,0,2.49,EG,1686629276
561,mount pearl,47.5166,-52.7813,8.31,96,100,9.77,CA,1686629089
562,adrar,20.5022,-10.0711,27.17,21,43,6.24,MR,1686629276
563,maintirano,-18.0667,44.0167,19.57,85,0,3.59,MG,1686629276
564,ilha solteira,-20.4328,-51.3425,18.25,97,97,2.94,BR,1686629276
565,praia da vitoria,38.7333,-27.0667,18.5,93,18,2.27,PT,1686629233
566,bengkulu,-3.8004,102.2655,29.05,65,16,2.23,ID,1686629276
567,naryn,41.4287,75.9911,18.61,53,100,0.72,KG,1686628803
568,mao,39.8885,4.2658,19.31,100,0,2.57,ES,1686629277
569,valparaiso,-33.0393,-71.6273,3.8,93,0,1.54,CL,1686629277
570,zeya,53.75,127.2667,26.37,42,100,1.66,RU,1686629277
571,glendive,47.1053,-104.7125,19.79,59,0,3.09,US,1686629091
572,along,28.1667,94.7667,27.82,81,82,1.26,IN,1686629277
573,linqiong,30.4159,103.4609,29.22,41,100,1.97,CN,1686629277
574,barra de santo antonio,-9.4047,-35.5072,23.6,82,31,5.03,BR,1686629277
