City_ID,City,Lat,Lon,Max Temp,Humidity,Cloudiness,Wind Speed,Country,Date
0,nuku'alofa,-21.1333,-175.2,23.19,78,75,0.51,TO,1686625376
1,arrifes,37.7667,-25.7,18.14,100,100,4.12,PT,1686625376
2,bredasdorp,-34.5322,20.0403,14.19,75,78,10.56,ZA,1686625376
3,kudahuvadhoo,2.6708,72.8944,28.74,75,87,5.87,MV,1686625231
4,tazovsky,67.4667,78.7,1.06,91,100,7.98,RU,1686625376
5,vila franca do campo,37.7167,-25.4333,19.23,98,100,4.64,PT,1686625376
6,colonia,50.9333,6.95,18.25,62,0,1.54,DE,1686625321
7,conde,-7.2597,-34.9075,23.7,100,20,2.06,BR,1686625377
8,bethel,41.3712,-73.414,19.16,89,100,2.06,US,1686625377
9,blackmans bay,-43.0167,147.3167,13.18,76,100,3.92,AU,1686625377
10,guerrero negro,27.9769,-114.0611,16.97,80,53,8.0,MX,1686625350
11,bilibino,68.0546,166.4372,7.05,89,100,5.75,RU,1686625377
12,adamstown,-25.066,-130.1015,20.53,62,38,3.01,PN,1686625377
13,constantia,44.1833,28.65,12.61,85,40,6.95,RO,1686625378
14,fortuna,40.5982,-124.1573,14.08,94,100,5.14,US,1686625176
15,kutum,14.2,24.6667,24.06,55,100,2.06,SD,1686625378
16,isafjordur,66.0755,-23.124,7.6,81,68,2.96,IS,1686625378
17,el calafate,-50.3408,-72.2768,0.29,70,100,1.34,AR,1686625378
18,singkil,-7.9855,111.4161,28.64,66,100,3.02,ID,1686625179
19,san antonio oeste,-40.7319,-64.9477,7.35,42,6,5.57,AR,1686625378
20,techirghiol,44.05,28.6,12.74,87,67,6.17,RO,1686625378
21,haiku-pauwela,20.9219,-156.3051,28.01,57,0,10.29,US,1686625379
22,kayangel,8.0823,134.7173,27.61,78,64,4.03,PW,1686625379
23,waitangi,-43.9535,-176.5597,11.01,88,94,1.79,NZ,1686625379
24,invercargill,-46.4,168.35,11.66,83,63,1.26,NZ,1686625157
25,vorgashor,67.5833,63.95,8.23,53,100,5.75,RU,1686625379
26,vilyuysk,63.7553,121.6247,16.04,28,1,5.82,RU,1686625379
27,port-aux-francais,-49.35,70.2167,6.16,88,100,13.91,TF,1686625380
28,trstena,49.361,19.6125,8.86,93,74,1.78,SK,1686625380
29,kerikeri,-35.2268,173.9474,17.17,67,5,3.81,NZ,1686625203
30,port elizabeth,-33.918,25.5701,13.39,66,0,3.6,ZA,1686625380
31,kita,13.0349,-9.4895,27.92,61,88,2.58,ML,1686625380
32,callao,-12.0667,-77.15,21.16,78,75,8.75,PE,1686625380
33,olonkinbyen,70.9221,-8.7187,1.6,90,100,8.97,SJ,1686625381
34,badger,64.8,-147.5333,17.14,44,100,7.72,US,1686625160
35,punta arenas,-53.15,-70.9167,6.06,70,20,6.17,CL,1686625159
36,georgetown,5.4112,100.3354,30.96,78,20,3.09,MY,1686625247
37,lazaro cardenas,17.9583,-102.2,27.11,78,1,3.37,MX,1686625381
38,abepura,-2.6333,140.5833,29.45,70,40,2.06,ID,1686625381
39,avarua,-21.2078,-159.775,26.03,83,20,7.72,CK,1686625382
40,newman,37.3138,-121.0208,26.27,60,51,2.24,US,1686625382
41,quepos,9.4236,-84.1652,26.89,86,93,0.54,CR,1686625382
42,manicore,-5.8092,-61.3003,24.98,81,47,0.33,BR,1686625382
43,pikalevo,59.5183,34.1664,8.73,65,11,1.59,RU,1686625382
44,aasiaat,68.7098,-52.8699,-2.59,86,44,2.1,GL,1686625382
45,kurchatov,51.6601,35.6521,12.23,81,85,4.82,RU,1686625383
46,lebu,-37.6167,-73.65,7.8,70,0,6.13,CL,1686625176
47,villa regina,-39.1,-67.0667,3.88,36,0,3.82,AR,1686625383
48,atafu village,-8.5421,-172.5159,28.68,75,33,6.83,TK,1686625160
49,kargopol',61.5071,38.9456,12.22,63,100,2.48,RU,1686625383
50,labrador city,52.9463,-66.9114,6.95,87,40,0.0,CA,1686625191
51,bandarbeyla,9.4942,50.8122,26.82,70,100,13.12,SO,1686625383
52,minna,9.6139,6.5569,24.84,88,0,1.03,NG,1686625383
53,gebeit,21.0667,36.3167,25.74,32,0,0.23,SD,1686625384
54,ushuaia,-54.8,-68.3,4.81,75,20,10.8,AR,1686625384
55,nar'yan-mar,67.6713,53.087,9.62,56,82,4.16,RU,1686625384
56,ribeira grande,38.5167,-28.7,19.32,97,10,0.89,PT,1686625150
57,ancud,-41.8697,-73.8203,4.52,90,61,2.61,CL,1686625384
58,lingcheng,22.7072,110.3492,30.92,68,70,1.9,CN,1686625385
59,dakhla,23.6848,-15.958,21.11,90,6,7.05,EH,1686625385
60,yantai,37.5333,121.4,20.8,62,0,3.66,CN,1686625385
61,nishinoomote,30.7333,131.0,24.31,100,75,3.09,JP,1686625385
62,margaret river,-33.95,115.0667,15.98,69,100,7.74,AU,1686625377
63,preobrazheniye,42.9019,133.9064,15.66,89,100,2.05,RU,1686625385
64,wailua homesteads,22.0669,-159.378,27.24,81,40,6.17,US,1686625386
65,puerto natales,-51.7236,-72.4875,1.97,94,100,1.88,CL,1686625386
66,edinburgh of the seven seas,-37.0676,-12.3116,15.11,90,100,8.33,SH,1686625386
67,pestretsy,55.7531,49.6545,11.08,67,0,3.8,RU,1686625386
68,jamestown,42.097,-79.2353,12.8,79,100,4.12,US,1686625231
69,papatowai,-46.5619,169.4708,11.42,80,27,2.29,NZ,1686625386
70,albany,42.6001,-73.9662,21.23,82,100,1.79,US,1686625386
71,nadi,-17.8,177.4167,28.0,69,40,5.14,FJ,1686625110
72,iskateley,67.6803,53.1512,9.6,56,79,4.15,RU,1686625387
73,tiksi,71.6872,128.8694,2.76,96,100,3.1,RU,1686625143
74,talnakh,69.4865,88.3972,10.79,62,89,2.4,RU,1686625387
75,puerto ayora,-0.7393,-90.3518,26.42,92,76,3.13,EC,1686625141
76,chonchi,-42.6128,-73.8092,3.56,95,32,0.79,CL,1686625387
77,iqaluit,63.7506,-68.5145,0.85,69,75,4.63,CA,1686625387
78,san antonio de pale,-1.4014,5.6325,24.33,88,99,3.01,GQ,1686625388
79,zeven,53.3,9.2833,14.45,63,6,3.81,DE,1686625388
80,darnah,32.767,22.6367,20.74,88,0,5.48,LY,1686625388
81,udachny,66.4167,112.4,16.92,31,18,7.11,RU,1686625388
82,utrik,11.2278,169.8474,27.77,80,48,7.99,MH,1686625160
83,dudinka,69.4058,86.1778,11.6,56,64,2.98,RU,1686625388
84,inhambane,-23.865,35.3833,19.02,89,66,2.33,MZ,1686625389
85,enewetak,11.3474,162.3373,27.96,81,99,8.62,MH,1686625389
86,jurilovca,44.7667,28.8667,13.05,83,31,7.83,RO,1686625389
87,dong ha,16.8163,107.1003,31.29,57,99,6.2,VN,1686625389
88,mount pearl,47.5166,-52.7813,8.8,95,100,7.2,CA,1686625389
89,lihue,21.9789,-159.3672,27.58,77,40,6.17,US,1686625389
90,port macquarie,-31.4333,152.9167,20.6,48,100,2.31,AU,1686624962
91,torquay,50.4638,-3.5143,15.2,91,20,0.89,GB,1686625390
92,manokwari,-0.8667,134.0833,27.74,76,54,1.41,ID,1686625390
93,ola,59.5833,151.2833,18.97,90,87,5.0,RU,1686625390
94,hermanus,-34.4187,19.2345,16.0,88,100,13.84,ZA,1686625390
95,bardai,11.65,7.2333,22.44,85,63,2.55,NG,1686625390
96,kulhudhuffushi,6.6221,73.07,28.85,80,100,7.95,MV,1686625390
97,stanley,54.868,-1.6985,12.06,94,100,0.51,GB,1686625343
98,hithadhoo,-0.6,73.0833,28.76,70,66,3.71,MV,1686625219
99,cerkezkoy,41.285,28.0003,15.1,94,75,0.0,TR,1686625391
100,alice springs,-23.7,133.8833,18.45,30,0,4.12,AU,1686625391
101,greymouth,-42.4667,171.2,13.02,59,13,0.92,NZ,1686625391
102,bamboo flat,11.7,92.7167,29.05,84,100,2.57,IN,1686625391
103,anadyr,64.75,177.4833,17.28,48,0,3.0,RU,1686625391
104,antigonish,45.6169,-61.9986,15.46,77,64,0.48,CA,1686625392
105,kaa-khem,51.6833,94.7333,19.98,37,16,2.24,RU,1686625159
106,richards bay,-28.783,32.0377,16.03,89,3,1.9,ZA,1686625392
107,shyroke,47.6917,33.2571,14.35,88,99,5.09,UA,1686625392
108,ilulissat,69.2167,-51.1,2.01,75,100,0.0,GL,1686625392
109,glace bay,46.1969,-59.957,12.1,84,40,1.79,CA,1686625334
110,yellowknife,62.456,-114.3525,7.29,70,75,3.09,CA,1686625212
111,raja,8.4596,25.678,20.73,97,59,1.64,SS,1686625393
112,lodja,-3.4833,23.4333,20.49,91,41,0.87,CD,1686625393
113,port saint john's,-31.6229,29.5448,14.6,66,79,2.75,ZA,1686625393
114,quang ngai,15.1167,108.8,31.57,59,100,0.71,VN,1686625393
115,grytviken,-54.2811,-36.5092,-3.05,85,95,4.25,GS,1686625393
116,lorengau,-2.0226,147.2712,29.7,74,62,4.72,PG,1686625394
117,luang prabang,19.8856,102.1347,26.98,83,75,0.0,LA,1686625158
118,tsiombe,-25.3,45.4833,16.7,95,10,3.49,MG,1686625394
119,nogliki,51.8333,143.1667,6.15,96,100,3.21,RU,1686625394
120,murashi,59.3999,48.9615,12.12,65,46,3.64,RU,1686625394
121,qaqortoq,60.7167,-46.0333,7.07,77,100,2.92,GL,1686625394
122,mahina,-17.5065,-149.489,28.87,61,40,2.57,PF,1686625394
123,nova sintra,14.8667,-24.7167,21.15,85,100,10.33,CV,1686625395
124,luderitz,-26.6481,15.1594,12.25,81,0,4.21,NA,1686625395
125,port mathurin,-19.6833,63.4167,24.73,73,9,6.85,MU,1686625153
126,kailua-kona,19.6406,-155.9956,27.98,83,40,4.63,US,1686625145
127,polyarnyy,69.1989,33.4478,9.87,65,92,6.32,RU,1686625395
128,holualoa,19.6228,-155.9522,25.91,84,100,5.66,US,1686625395
129,camana,-16.6228,-72.7111,17.86,81,91,4.7,PE,1686625396
130,mirny,62.5353,113.9611,14.02,30,70,0.89,RU,1686625396
131,mikun',62.3547,50.0771,13.62,85,99,3.01,RU,1686625396
132,machico,32.7,-16.7667,19.35,82,20,2.06,PT,1686625396
133,numata,36.6333,139.05,28.54,56,92,0.68,JP,1686625396
134,vilyuchinsk,52.9306,158.4028,23.15,47,0,1.42,RU,1686625396
135,pahlgam,34.0333,75.3333,16.53,62,7,1.49,IN,1686625396
136,belyy yar,53.6039,91.3903,18.94,63,0,3.0,RU,1686625396
137,moundsville,39.9203,-80.7431,14.97,94,6,1.81,US,1686625397
138,coquimbo,-29.9533,-71.3436,10.85,81,100,1.54,CL,1686625397
139,zapolyarnyy,69.4154,30.8136,9.6,60,44,9.48,RU,1686625397
140,kodiak,57.79,-152.4072,12.73,44,100,6.17,US,1686625397
141,moengo,5.6167,-54.4,23.41,99,100,1.22,SR,1686625397
142,promyshlennaya,54.9159,85.6385,12.53,58,100,3.23,RU,1686625398
143,remire-montjoly,4.9167,-52.2667,25.02,94,75,0.0,GF,1686625398
144,ngambe,4.2333,10.6167,20.68,99,100,0.65,CM,1686625398
145,tangalle,6.024,80.7911,30.09,73,100,6.27,LK,1686625398
146,atbara,17.7022,33.9864,32.27,23,66,4.96,SD,1686625398
147,petropavlovsk-kamchatsky,53.0452,158.6483,22.33,38,0,6.0,RU,1686625398
148,salmon arm,50.6998,-119.3024,29.62,48,53,0.51,CA,1686625320
149,geraldton,-28.7667,114.6,17.23,55,0,6.17,AU,1686625334
150,paita,-5.0892,-81.1144,22.92,78,1,7.2,PE,1686625399
151,mirnyy,62.5353,113.9611,14.02,30,70,0.89,RU,1686625396
152,tura,25.5198,90.2201,27.14,83,7,3.0,IN,1686625199
153,ngorongoro,-3.2397,35.4875,10.77,86,88,1.46,TZ,1686625399
154,mizdah,31.4451,12.9801,22.05,48,0,2.49,LY,1686625147
155,yeed,4.55,43.0333,22.26,73,99,6.84,SO,1686625399
156,bulayevo,54.9056,70.4439,12.35,53,100,3.59,KZ,1686625187
157,manga,11.6636,-1.0731,24.92,80,75,3.14,BF,1686625399
158,qamdo,31.1667,97.2333,2.34,94,100,1.15,CN,1686625400
159,yemetsk,63.4721,41.7941,16.18,57,100,4.14,RU,1686625400
160,ambikapur,23.1167,83.2,36.44,24,5,3.7,IN,1686625400
161,sisimiut,66.9395,-53.6735,0.06,88,31,3.26,GL,1686625400
162,howrah,22.5892,88.3103,31.0,84,40,2.57,IN,1686625400
163,smara,26.7384,-11.6719,20.28,84,15,4.98,EH,1686625175
164,klyuchi,52.2667,79.1667,19.07,54,18,4.38,RU,1686625161
165,santa cruz,-17.8,-63.1667,13.7,54,100,9.26,BO,1686625376
166,la sarre,48.8002,-79.1996,15.03,87,100,2.77,CA,1686625376
167,neryungri,56.6709,124.6491,5.02,90,100,4.21,RU,1686625401
168,palikir - national government center,6.9248,158.1611,31.47,74,100,5.14,FM,1686625401
169,xuddur,4.1213,43.8894,20.77,85,60,7.11,SO,1686625401
170,thompson,55.7435,-97.8558,8.09,81,100,5.14,CA,1686625401
171,hadibu,12.65,54.0333,28.24,78,100,10.52,YE,1686625402
172,saipan,15.1355,145.701,31.39,100,75,5.66,MP,1686625402
173,fort bragg,35.139,-79.006,22.91,91,75,2.06,US,1686625155
174,mejit,10.2753,170.8646,27.93,80,86,9.03,MH,1686625402
175,reggane,26.7158,0.1714,31.46,10,0,3.81,DZ,1686625155
176,labuan,5.2767,115.2417,31.2,74,40,1.54,MY,1686625402
177,gulf shores,30.246,-87.7008,24.08,89,20,4.63,US,1686625337
178,kyenjojo,0.6328,30.6214,15.55,96,95,0.94,UG,1686625403
179,pisco,-13.7,-76.2167,19.03,77,2,1.03,PE,1686625403
180,west island,-12.1568,96.8225,26.99,83,75,8.47,CC,1686625403
181,hawaiian paradise park,19.5933,-154.9731,27.07,75,40,4.12,US,1686625403
182,henderson,36.0397,-114.9819,29.01,27,0,5.66,US,1686625152
183,chinde,26.8418,88.0763,22.87,69,34,1.4,NP,1686625403
184,new norfolk,-42.7826,147.0587,13.84,78,94,1.37,AU,1686625163
185,lompoc,34.6391,-120.4579,18.21,84,0,3.09,US,1686625199
186,ust-nera,64.5667,143.2,7.72,84,100,3.65,RU,1686625149
187,port alfred,-33.5906,26.891,15.0,57,100,8.46,ZA,1686625404
188,chibougamau,49.9168,-74.3659,17.79,59,0,3.09,CA,1686625340
189,nemuro,43.3236,145.575,11.97,97,100,5.12,JP,1686625405
190,xilin hot,43.9667,116.0333,24.79,30,4,4.54,CN,1686625405
191,chistopol',55.3631,50.6424,10.88,63,0,4.79,RU,1686625405
192,mitu,1.1983,-70.1733,23.07,95,93,0.23,CO,1686625405
193,mount gambier,-37.8333,140.7667,11.22,84,100,4.77,AU,1686625150
194,kaliua,-5.0606,31.7936,17.03,67,100,2.03,TZ,1686625405
195,akouda,35.8691,10.5653,21.82,59,100,3.69,TN,1686625405
196,ordubad,38.9059,46.0234,23.65,63,5,2.48,AZ,1686625406
197,ebon,4.582,168.6964,26.79,85,100,5.22,MH,1686625406
198,kirillov,59.863,38.3813,12.22,63,14,2.18,RU,1686625406
199,uturoa,-16.7333,-151.4333,27.19,73,21,7.05,PF,1686625406
200,isangel,-19.55,169.2667,26.06,65,100,2.06,VU,1686625406
201,saint-joseph,-21.3667,55.6167,21.93,75,5,1.23,RE,1686625168
202,casper,42.8666,-106.3131,13.73,86,100,1.54,US,1686625407
203,prado,-17.3411,-39.2208,22.53,90,0,2.83,BR,1686625407
204,laojunmiao,39.8333,97.7333,25.69,15,0,8.97,CN,1686625407
205,tambopata,-12.7333,-69.1833,17.11,99,100,2.77,PE,1686625407
206,susuman,62.7833,148.1667,11.65,81,100,3.7,RU,1686625157
207,hammerfest,70.6634,23.6821,5.25,81,100,8.75,NO,1686625407
208,tolanaro,-25.0319,46.9987,17.04,94,20,0.0,MG,1686625407
209,kpandu,6.9954,0.2931,22.29,82,93,2.05,GH,1686625408
210,beyneu,45.3167,55.2,28.17,17,8,4.59,KZ,1686625408
211,saint croix,17.7397,-64.7388,27.25,84,20,6.17,VI,1686625408
212,viedma,-40.8135,-62.9967,5.22,47,6,4.3,AR,1686625225
213,altusried,47.8,10.2167,11.85,94,1,2.37,DE,1686625408
214,creston,41.0586,-94.3614,16.3,59,0,3.6,US,1686625408
215,kangiwa,12.5521,3.8187,27.08,71,100,3.58,NG,1686625408
216,mongu,-15.2484,23.1274,13.36,48,26,2.35,ZM,1686625408
217,tinogasta,-28.0632,-67.5649,4.75,79,100,0.99,AR,1686625409
218,adrar,20.5022,-10.0711,27.52,20,35,5.96,MR,1686625409
219,sao felix do xingu,-6.6447,-51.995,22.96,80,14,1.19,BR,1686625214
220,rio verde de mato grosso,-18.9181,-54.8442,15.88,93,100,2.66,BR,1686625409
221,north bend,43.4065,-124.2243,16.8,94,100,3.6,US,1686625409
222,tionk essil,12.7856,-16.5217,28.03,81,99,4.25,SN,1686625409
223,longyearbyen,78.2186,15.6401,2.91,70,75,6.17,SJ,1686625397
224,kununurra,-15.7667,128.7333,30.99,27,23,6.69,AU,1686625410
225,pandan,14.0453,124.1694,31.86,60,100,2.06,PH,1686625410
226,dzhangala,49.2167,50.3333,23.56,49,63,7.11,KZ,1686625410
227,walvis bay,-22.9575,14.5053,12.83,93,0,2.57,NA,1686625410
228,laguna salada,19.6483,-71.0945,26.57,78,4,1.79,DO,1686625410
229,namtsy,62.7161,129.6658,8.77,66,100,2.55,RU,1686625410
230,cabo san lucas,22.8909,-109.9124,28.67,62,1,6.76,MX,1686625168
231,le vauclin,14.5452,-60.8388,27.69,94,0,1.54,MQ,1686625411
232,la entrada,15.05,-88.7333,24.12,79,96,1.17,HN,1686625411
233,sao tome,0.3365,6.7273,25.36,84,72,3.03,ST,1686625411
234,tosontsengel,48.7567,98.2839,11.62,80,100,5.39,MN,1686625411
235,alofi,-19.0595,-169.9187,22.94,94,100,6.17,NU,1686625411
236,nouadhibou,20.931,-17.0347,20.99,82,0,8.9,MR,1686625412
237,crane,31.3974,-102.3501,31.89,13,2,4.29,US,1686625412
238,usinsk,65.9939,57.5281,11.22,89,90,6.38,RU,1686625224
239,kill devil hills,36.0307,-75.676,22.01,91,40,6.69,US,1686625212
240,kalmunai,7.4167,81.8167,29.02,68,96,1.39,LK,1686625412
241,teknaf,20.8624,92.3058,28.54,80,99,4.24,BD,1686625412
242,sant antoni de portmany,38.9807,1.3036,21.72,85,0,1.34,ES,1686625413
243,caleta de carquin,-11.0925,-77.6267,20.19,80,36,6.51,PE,1686625413
244,yelizovo,53.1873,158.3805,23.08,38,0,6.0,RU,1686625413
245,grants pass,42.439,-123.3284,29.73,50,0,5.14,US,1686625413
246,bela vista,-22.1089,-56.5211,7.95,91,100,2.96,BR,1686625376
247,severo-yeniseyskiy,60.3725,93.0408,9.74,70,99,2.84,RU,1686625414
248,gisborne,-38.6533,178.0042,12.25,75,34,7.41,NZ,1686625414
249,el granada,37.5027,-122.4694,19.89,79,100,3.6,US,1686625414
250,longview,32.5007,-94.7405,26.14,76,0,2.06,US,1686625414
251,hamilton,39.1834,-84.5333,14.36,76,0,0.0,US,1686625323
252,abaete,-19.16,-45.4458,21.91,47,92,1.8,BR,1686625265
253,tughyl,47.7252,84.2063,19.28,56,83,4.07,KZ,1686625414
254,maumere,-8.6199,122.2111,28.09,61,21,2.54,ID,1686625415
255,scottburgh,-30.2867,30.7532,14.26,74,32,3.4,ZA,1686625415
256,taunsa,30.7048,70.6505,38.99,25,0,4.1,PK,1686625415
257,ternate,0.8,127.4,26.63,85,79,2.78,ID,1686625415
258,saudarkrokur,65.7461,-19.6394,8.43,83,8,3.1,IS,1686625415
259,keflavik,64.0049,-22.5624,8.26,87,0,1.54,IS,1686625415
260,whitehorse,60.7161,-135.0538,16.43,23,40,8.75,CA,1686625416
261,igarka,67.4667,86.5833,9.76,68,62,6.68,RU,1686625416
262,kone,-21.0595,164.8658,25.11,52,17,2.89,NC,1686625192
263,mazagao,-0.115,-51.2894,27.03,97,99,1.43,BR,1686625302
264,sola,-13.8833,167.55,26.73,76,25,7.13,VU,1686625416
265,mbouda,5.6258,10.2552,16.48,98,100,1.53,CM,1686625416
266,niort,46.3333,-0.3333,17.32,93,100,2.89,FR,1686625416
267,urangan,-25.3,152.9,20.95,67,0,0.99,AU,1686625361
268,vadstena,58.4486,14.8897,10.54,61,2,3.84,SE,1686625417
269,gadzhiyevo,69.2551,33.3362,9.6,65,98,6.94,RU,1686625145
270,port lincoln,-34.7333,135.8667,13.58,61,95,9.7,AU,1686625190
271,iwanai,42.9744,140.5089,21.65,77,95,1.44,JP,1686625417
272,masterton,-40.9597,175.6575,12.71,76,32,3.34,NZ,1686625417
273,as sulayyil,20.4607,45.5779,31.14,16,99,7.79,SA,1686625417
274,zeya,53.75,127.2667,25.55,41,100,2.02,RU,1686625417
275,gilgit,35.9221,74.3087,23.52,51,100,0.65,PK,1686625418
276,anaconda,46.1285,-112.9423,13.97,87,88,1.89,US,1686625418
277,faya-largeau,17.9257,19.1043,31.97,35,12,2.33,TD,1686625418
278,boende,-0.2167,20.8667,21.31,99,74,0.88,CD,1686625418
279,pacific grove,36.6177,-121.9166,16.35,82,40,4.12,US,1686625418
280,ubaira,-13.2681,-39.6628,18.4,99,17,0.85,BR,1686625418
281,la'ie,21.6477,-157.9253,28.98,71,0,3.13,US,1686625419
282,arkhangel'sk,64.5401,40.5433,16.46,53,87,4.89,RU,1686625184
283,moranbah,-22.0016,148.0466,26.44,37,35,2.36,AU,1686625419
284,trondheim,63.4305,10.3951,13.03,79,100,0.95,NO,1686625352
285,ghat,24.9647,10.1728,29.4,18,1,1.66,LY,1686625172
286,melendugno,40.2747,18.3368,18.92,83,6,3.76,IT,1686625419
287,dwarka,22.2394,68.9678,29.17,81,100,15.69,IN,1686625419
288,novozavidovskiy,56.55,36.4333,9.77,70,13,2.19,RU,1686625419
289,island harbour,50.724,-1.2758,17.74,94,59,0.45,GB,1686625179
290,playa del ingles,27.7567,-15.5787,21.86,86,57,3.58,ES,1686625420
291,banda aceh,5.5577,95.3222,30.52,60,57,5.04,ID,1686625420
292,gao,16.6362,1.637,27.31,61,18,4.12,ML,1686625420
293,maughold,54.2988,-4.3184,15.57,96,100,3.72,IM,1686625420
294,sinabang,2.4803,96.3801,29.35,68,25,1.25,ID,1686625420
295,dompu,-8.5356,118.4622,28.67,61,86,3.16,ID,1686625420
296,ponta delgada,37.7333,-25.6667,19.4,100,100,4.12,PT,1686625211
297,floro,61.5996,5.0328,13.98,72,100,4.12,NO,1686625421
298,dunedin,-45.8742,170.5036,12.67,64,60,1.34,NZ,1686625129
299,fabens,31.5023,-106.1586,31.62,9,0,7.27,US,1686625421
300,mahanoro,-19.9,48.8,19.32,91,5,1.86,MG,1686625421
301,la passe,45.5549,-0.8967,18.13,92,100,2.86,FR,1686625159
302,twon-brass,4.3151,6.2418,26.12,82,100,3.03,NG,1686625421
303,flying fish cove,-10.4217,105.6791,26.82,83,100,6.69,CX,1686625422
304,mar del plata,-38.0023,-57.5575,6.72,90,40,1.54,AR,1686625249
305,weno,7.4515,151.8468,29.97,84,100,3.6,FM,1686625422
306,acarau,-2.8856,-40.12,24.96,86,0,4.82,BR,1686625422
307,midvagur,62.0511,-7.1939,6.46,87,99,0.0,FO,1686625205
308,nchelenge,-9.3451,28.734,18.62,59,31,2.29,ZM,1686625422
309,bandon,51.7469,-8.7425,15.77,94,100,2.7,IE,1686625423
310,praia da vitoria,38.7333,-27.0667,18.14,100,20,2.62,PT,1686625423
311,shenjiamen,29.9576,122.298,22.35,92,100,3.62,CN,1686625423
312,quetta,30.199,67.0097,25.13,40,0,2.23,PK,1686625423
313,baise city,23.8997,106.6133,24.3,90,100,0.97,CN,1686625423
314,robore,-18.3333,-59.75,7.68,95,100,2.81,BO,1686625423
315,lensk,60.7253,114.9278,16.52,25,3,2.09,RU,1686625423
316,caconda,-13.7333,15.0667,10.25,56,0,0.43,AO,1686625423
317,hastings,50.8552,0.5729,16.85,26,11,4.98,GB,1686625424
318,karratha,-20.7377,116.8463,24.04,29,11,9.42,AU,1686625309
319,zmiyevka,52.6697,36.3739,10.82,70,99,5.5,RU,1686625424
320,dori,14.0354,-0.0345,26.66,68,68,4.03,BF,1686625424
321,sanibel,26.449,-82.0223,29.03,81,0,0.45,US,1686625425
322,zaranj,30.9667,61.8833,29.98,11,0,11.13,AF,1686625425
323,kourou,5.1552,-52.6478,25.03,91,74,2.62,GF,1686625207
324,ampara,7.2833,81.6667,29.05,69,98,0.92,LK,1686625426
325,verkhniy ufaley,56.0567,60.2306,9.31,48,0,2.22,RU,1686625426
326,turan,16.0678,108.2208,34.99,52,20,6.69,VN,1686625404
327,cuamba,-14.8031,36.5372,14.43,56,4,1.36,MZ,1686625426
328,bay roberts,47.5999,-53.2648,9.47,92,100,4.47,CA,1686625426
329,garden city,42.3256,-83.331,15.46,69,9,3.77,US,1686625214
330,minas de marcona,-15.2119,-75.1103,12.21,86,82,7.6,PE,1686625427
331,pontes e lacerda,-15.2261,-59.3353,14.07,87,100,2.17,BR,1686625427
332,mandan,46.8267,-100.8896,21.56,52,0,2.57,US,1686625147
333,zhaqsy,51.9083,67.3133,11.98,62,90,9.12,KZ,1686625427
334,cartagena,10.3997,-75.5144,28.79,89,40,1.54,CO,1686625427
335,hasaki,35.7333,140.8333,27.9,85,99,5.43,JP,1686625316
336,northam,51.0333,-4.2167,15.37,97,24,0.45,GB,1686625427
337,thurso,58.5927,-3.5259,11.14,92,64,1.63,GB,1686625428
338,tromso,69.6496,18.957,7.01,81,100,10.29,NO,1686625428
339,acatic,20.7833,-102.8833,27.32,25,83,1.46,MX,1686625428
340,gaiman,-43.2897,-65.4929,3.57,58,99,0.51,AR,1686625428
341,spring creek,40.7266,-115.5859,16.33,54,59,1.37,US,1686625428
342,sake,-1.5736,29.045,17.63,91,96,0.45,CD,1686625428
343,ofunato,39.0717,141.7167,21.25,85,89,1.58,JP,1686625428
344,zhangye,38.9342,100.4517,30.4,11,0,6.14,CN,1686625429
345,carutapera,-1.195,-46.02,24.55,93,65,2.91,BR,1686625429
346,burabay,53.0838,70.3138,11.14,72,100,6.01,KZ,1686625429
347,liwale,-9.7667,37.9333,15.9,93,3,0.97,TZ,1686625429
348,mandalgovi,45.7625,106.2708,26.08,18,0,7.66,MN,1686625429
349,villa gesell,-37.2639,-56.973,2.81,79,52,4.89,AR,1686625429
350,st. john's,47.5649,-52.7093,9.26,95,100,7.2,CA,1686625429
351,cadale,2.7603,46.3222,26.03,86,26,7.51,SO,1686625430
352,namibe,-15.1961,12.1522,15.79,79,4,0.99,AO,1686625430
353,nikolayevsk-on-amure,53.1406,140.73,17.3,57,67,3.72,RU,1686625430
354,vila velha,-20.3297,-40.2925,23.3,88,20,2.57,BR,1686625430
355,quellon,-43.1167,-73.6167,1.14,100,75,1.54,CL,1686625430
356,kavaratti,10.5669,72.642,29.6,75,96,9.19,IN,1686625430
357,marmande,44.5,0.1667,17.17,90,84,1.09,FR,1686625430
358,afaahiti,-17.75,-149.2833,27.93,70,28,8.01,PF,1686625431
359,galveston,29.3669,-94.9669,28.33,85,3,0.89,US,1686625209
360,yoloten,37.2989,62.3597,31.75,15,0,0.48,TM,1686625431
361,serdar,38.9764,56.2757,31.9,13,0,0.8,TM,1686625431
362,amos,48.5669,-78.1162,16.54,70,100,2.7,CA,1686625431
363,cidreira,-30.1811,-50.2056,9.04,71,83,3.65,BR,1686625431
364,tuy hoa,13.0833,109.3,31.21,58,99,4.28,VN,1686625432
365,kasaragod,12.5,75.0,28.36,76,91,1.3,IN,1686625432
366,suntar,62.1444,117.6319,16.11,29,11,3.6,RU,1686625432
367,mumford,5.2618,-0.759,24.77,73,54,3.99,GH,1686625432
368,illizi,26.4833,8.4667,30.89,17,0,4.72,DZ,1686625432
369,egilsstadir,65.2653,-14.3948,5.95,87,0,1.54,IS,1686625432
370,truth or consequences,33.1284,-107.2528,26.2,10,0,6.17,US,1686625432
371,camacupa,-12.0167,17.4833,11.69,52,15,1.77,AO,1686625433
372,undurkhaan,47.3194,110.6556,28.57,21,99,5.94,MN,1686625433
373,kolonia town,6.964,158.206,32.06,74,100,5.14,FM,1686625433
374,ust'-kut,56.7938,105.7672,13.33,44,100,1.75,RU,1686625433
375,sharan,54.8167,54.0,10.46,64,1,5.94,RU,1686625433
376,aykhal,66.0,111.5,15.24,34,11,7.69,RU,1686625433
377,itamaraca,-7.7478,-34.8256,27.03,84,18,5.14,BR,1686625433
378,natal,-5.795,-35.2094,24.12,100,40,3.09,BR,1686625434
379,kayyerkan,69.3786,87.7439,10.01,60,88,4.0,RU,1686625434
380,nacala,-14.5428,40.6728,18.91,91,0,1.42,MZ,1686625434
381,aurangabad,19.8833,75.3333,29.15,53,12,6.61,IN,1686625434
382,khairpur nathan shah,27.0936,67.7337,35.0,42,84,7.17,PK,1686625434
383,east london,-33.0153,27.9116,16.69,44,93,9.47,ZA,1686625434
384,lake city,30.1897,-82.6393,25.84,83,0,4.63,US,1686625337
385,lata,40.1629,-8.3327,18.37,98,99,1.72,PT,1686625434
386,le trait,49.4689,0.8163,16.2,94,14,1.87,FR,1686625435
387,carnarvon,-24.8667,113.6333,19.13,31,0,6.83,AU,1686625435
388,fale old settlement,-9.3852,-171.2468,28.45,78,11,6.64,TK,1686625159
389,salekhard,66.53,66.6019,9.07,47,100,4.22,RU,1686625435
390,poplar bluff,36.757,-90.3929,19.88,63,0,0.0,US,1686625431
391,sao jose,-28.2333,-49.1667,10.68,78,100,1.58,BR,1686625435
392,vershino-darasunskiy,52.35,115.5167,19.37,51,87,2.69,RU,1686625436
393,waddan,29.1614,16.139,21.77,58,0,1.97,LY,1686625436
394,wenling,28.3669,121.36,25.17,84,94,1.59,CN,1686625436
395,nasiriyah,31.0521,46.261,34.55,17,0,3.15,IQ,1686625436
396,harstad,68.799,16.5293,7.66,99,100,7.15,NO,1686625436
397,san jeronimo,-11.9472,-75.2829,11.11,79,99,1.36,PE,1686625436
398,hami,42.8,93.45,33.59,15,76,3.45,CN,1686625436
399,naze,28.3667,129.4833,22.51,91,100,3.23,JP,1686625437
400,taroa,8.7058,171.2275,28.34,79,63,8.37,MH,1686625437
401,puerto deseado,-47.7503,-65.8938,4.19,61,100,4.34,AR,1686625437
402,kingston,17.997,-76.7936,28.53,79,20,6.69,JM,1686625181
403,kirensk,57.7853,108.1119,16.57,32,100,5.03,RU,1686625437
404,galliano,29.4422,-90.2992,27.22,83,0,2.57,US,1686625437
405,dzhetygara,52.1908,61.2006,9.07,87,100,7.6,KZ,1686625438
406,talcahuano,-36.7167,-73.1167,8.82,61,0,5.14,CL,1686625438
407,vadso,70.0744,29.7487,10.49,66,40,6.69,NO,1686625438
408,la gi,10.6667,107.7833,30.03,69,97,4.99,VN,1686625438
409,micheweni,-4.9667,39.8333,24.99,77,9,4.24,TZ,1686625438
410,arpajon-sur-cere,44.9026,2.4581,13.45,99,100,1.03,FR,1686625438
411,tual,-5.6667,132.75,26.98,81,100,8.64,ID,1686625439
412,madimba,-10.4,40.3333,21.28,83,0,2.85,TZ,1686625439
413,okahandja,-21.9833,16.9167,5.83,58,0,1.63,NA,1686625439
414,pullambadi,10.9667,78.9167,31.1,60,99,6.26,IN,1686625439
415,yuzhno-kurilsk,44.0306,145.8556,11.73,96,100,3.71,RU,1686625439
416,ishigaki,24.3448,124.1572,26.07,100,75,8.23,JP,1686625439
417,tralee,52.2704,-9.7026,15.52,95,91,1.12,IE,1686625440
418,porto novo,6.4965,2.6036,26.9,82,100,2.57,BJ,1686625440
419,madinat ash shamal,26.1293,51.2009,32.33,63,21,2.49,QA,1686625440
420,bikenibeu village,1.3673,173.1241,30.98,74,40,2.57,KI,1686625440
421,portland,45.5234,-122.6762,31.02,45,20,5.14,US,1686624751
422,sarmiento,-45.5882,-69.07,1.47,69,9,0.92,AR,1686625440
423,charlestown,-32.95,151.6667,18.39,73,87,1.79,AU,1686625440
424,taoudenni,22.6783,-3.9836,32.82,12,42,4.01,ML,1686625441
425,ellsworth,44.5434,-68.4195,16.42,93,86,1.71,US,1686625198
426,sabha,27.0377,14.4283,25.4,38,0,4.63,LY,1686625441
427,igra,57.5558,53.0547,11.52,56,3,1.08,RU,1686625441
428,santa elena de uairen,4.6167,-61.1333,19.68,92,81,1.1,VE,1686625441
429,ulsteinvik,62.3432,5.8487,14.95,83,100,0.45,NO,1686625164
430,ballina,-28.8667,153.5667,24.32,64,6,3.78,AU,1686625441
431,arenapolis,-14.4503,-56.8461,18.3,92,99,2.64,BR,1686625441
432,nichinan,31.6,131.3667,23.82,83,100,1.76,JP,1686625442
433,tanggu,39.0211,117.6469,27.98,41,2,1.77,CN,1686625442
434,mont-laurier,46.5501,-75.4993,22.79,65,100,3.98,CA,1686625442
435,yakeshi,49.2833,120.7333,27.05,37,100,3.39,CN,1686625442
436,betio village,1.358,172.9211,31.02,79,95,5.74,KI,1686625442
437,magadan,59.5667,150.8,18.63,85,88,4.36,RU,1686625442
438,al kharijah,25.4514,30.5464,29.61,26,0,1.82,EG,1686625442
439,saurimo,-9.6608,20.3916,15.64,43,46,1.97,AO,1686625443
440,college,64.8569,-147.8028,16.97,44,75,6.17,US,1686625443
441,homer,59.6425,-151.5483,10.93,69,100,5.36,US,1686625404
442,awjilah,29.1081,21.2869,22.76,57,0,5.29,LY,1686625398
443,umba,66.6871,34.3429,10.95,66,94,4.75,RU,1686625443
444,outjo,-20.1167,16.15,6.88,22,5,3.7,NA,1686625443
445,arraial do cabo,-22.9661,-42.0278,21.81,91,2,3.23,BR,1686625444
446,san patricio,28.017,-97.5169,28.27,88,16,6.61,US,1686625253
447,happy valley-goose bay,53.3168,-60.3315,15.17,47,75,2.06,CA,1686625212
448,ilha de mocambique,-15.0342,40.7358,23.22,70,1,1.48,MZ,1686625444
449,baker city,44.7749,-117.8344,20.84,60,100,3.09,US,1686625444
450,savanna-la-mar,18.219,-78.1332,28.97,82,2,3.0,JM,1686625444
451,summerland,49.5998,-119.6691,31.62,34,20,2.06,CA,1686625444
452,mhamid,29.82,-5.72,25.87,23,0,1.73,MA,1686625445
453,amga,60.8953,131.9608,4.24,94,100,1.8,RU,1686625445
454,bemetara,21.7,81.5333,38.22,26,57,3.26,IN,1686625445
455,baie-comeau,49.2168,-68.1489,14.82,82,0,1.03,CA,1686625211
456,alesund,62.4723,6.1549,14.95,79,100,0.0,NO,1686625445
457,morehead,37.2711,-87.1764,14.44,86,0,0.0,US,1686625194
458,khandyga,62.6667,135.6,9.89,77,100,3.43,RU,1686625446
459,westport,41.1415,-73.3579,20.18,92,100,3.6,US,1686625169
460,selfoss,63.9331,-20.9971,8.25,81,4,1.83,IS,1686625446
461,passy,45.9203,6.6877,15.46,85,90,1.29,FR,1686625446
462,brokopondo,4.75,-55.1667,25.23,88,100,2.93,SR,1686625446
463,rehoboth,-23.3167,17.0833,4.97,69,0,1.14,NA,1686625446
464,xinyi,22.373,110.9475,30.96,69,95,2.08,CN,1686625447
465,guastatoya,14.8539,-90.0647,26.15,67,100,0.56,GT,1686625447
466,at taj,24.2049,23.2857,28.97,27,0,7.54,LY,1686625447
467,aioun,16.6614,-9.6149,30.99,42,98,7.01,MR,1686625448
468,koryazhma,61.3143,47.1691,14.99,64,85,3.0,RU,1686625448
469,lefka,35.1106,32.8506,20.37,79,21,0.53,CY,1686625448
470,nizhneudinsk,54.9076,99.0276,11.42,91,100,0.91,RU,1686625448
471,madang,-5.2246,145.7966,30.11,69,40,3.43,PG,1686625448
472,sarangani,5.4033,125.4636,29.11,69,33,3.32,PH,1686625449
473,cannonvale,-20.2833,148.7,22.66,69,10,3.85,AU,1686625449
474,jayapura,-2.5333,140.7,27.66,96,100,2.6,ID,1686625449
475,palmer,42.1584,-72.3287,19.68,85,75,0.45,US,1686625449
476,babor - ville,36.4899,5.5393,20.04,76,100,4.33,DZ,1686625449
477,male,4.1748,73.5089,29.97,79,75,6.17,MV,1686625299
478,barcelos,41.5388,-8.6151,19.08,92,100,1.61,PT,1686625236
479,kapuskasing,49.4169,-82.4331,17.0,82,100,3.09,CA,1686625218
480,berezovo,63.9381,65.0419,9.48,47,57,4.72,RU,1686625450
481,korsakov,46.6328,142.7813,15.91,84,100,2.47,RU,1686625450
482,piti village,13.4626,144.6933,31.03,79,20,8.23,GU,1686625450
483,ladario,-19.0047,-57.6017,10.22,84,100,2.98,BR,1686625450
484,valle de la pascua,9.2155,-66.0073,23.74,91,80,2.15,VE,1686625450
485,kampung sungai ara,5.327,100.2735,30.95,66,20,3.13,MY,1686625451
486,kirklareli,41.7351,27.2252,13.33,95,25,2.24,TR,1686625451
487,tvoroyri,61.5556,-6.8111,9.79,66,88,2.14,FO,1686625451
488,tyup,42.7276,78.3648,21.06,55,75,1.43,KG,1686625451
489,senanga,-16.1167,23.2667,12.69,42,6,2.6,ZM,1686625451
490,guaratuba,-25.8828,-48.5747,12.97,95,100,4.18,BR,1686625451
491,mocajuba,-2.5842,-49.5072,23.35,98,58,1.39,BR,1686625452
492,choibalsan,48.0667,114.5,29.49,20,100,3.19,MN,1686625452
493,morehead city,34.7229,-76.726,24.45,90,75,5.14,US,1686625452
494,naters,46.3254,7.9891,18.58,90,98,2.09,CH,1686625452
495,sao raimundo nonato,-9.0153,-42.6994,22.3,72,0,0.96,BR,1686625309
496,emerald,-23.5333,148.1667,26.3,47,4,1.27,AU,1686625452
497,baardheere,2.3446,42.2764,22.7,85,74,4.43,SO,1686625452
498,oranjemund,-28.55,16.4333,12.29,81,0,1.54,NA,1686625453
499,vanino,49.0869,140.2543,11.03,92,100,0.93,RU,1686625453
500,sault ste. marie,46.5168,-84.3333,10.31,100,100,8.23,CA,1686625217
501,ranong,9.9658,98.6348,28.96,71,98,5.06,TH,1686625453
502,coronel moldes,-33.6227,-64.5971,3.22,41,0,2.42,AR,1686625453
503,bonanza,14.0289,-84.591,24.05,99,93,0.85,NI,1686625232
504,worland,44.0169,-107.9554,18.11,87,94,6.91,US,1686625204
505,kyabe,9.4515,18.9449,24.66,81,100,1.68,TD,1686625453
506,candelaria,13.9311,121.4233,30.22,63,100,2.06,PH,1686625454
507,gizo,-8.103,156.8419,28.67,76,12,4.23,SB,1686625454
508,vorkuta,67.5,64.0,8.28,53,100,5.66,RU,1686625454
509,miandrivazo,-19.5167,45.4667,17.04,65,0,0.57,MG,1686625454
510,port blair,11.6667,92.75,29.02,84,100,2.57,IN,1686625454
511,mahibadhoo,3.7833,72.9667,28.9,76,91,7.22,MV,1686625322
512,ankang,32.68,109.0172,26.66,62,0,0.75,CN,1686625455
513,opuwo,-18.0607,13.84,10.97,17,5,2.36,NA,1686625455
514,terenos,-20.4422,-54.8603,14.84,100,100,3.6,BR,1686625455
515,kamaishi,39.2667,141.8833,20.38,89,91,1.82,JP,1686625455
516,taksimo,56.3444,114.8794,16.63,37,55,1.85,RU,1686625455
517,sakakah,29.9697,40.2064,22.76,27,0,2.61,SA,1686625455
518,iron river,46.0927,-88.6423,10.42,98,100,2.08,US,1686625205
519,lienz,46.8289,12.769,12.33,99,95,0.32,AT,1686625456
520,wewak,-3.5534,143.6268,28.65,76,100,1.42,PG,1686625456
521,anna regina,7.2644,-58.5077,26.51,83,81,3.54,GY,1686625456
522,mount pleasant,32.7941,-79.8626,24.0,97,0,3.6,US,1686625456
523,xinyuan,37.3,99.0,12.23,41,100,3.19,CN,1686625456
524,tondi,9.7333,79.0167,30.72,59,99,3.64,IN,1686625456
525,al ghayzah,16.2079,52.176,28.5,88,100,1.09,YE,1686625456
526,saint-pierre,-21.3393,55.4781,22.54,73,0,3.09,RE,1686625457
527,balikpapan,-1.2675,116.8289,27.55,83,40,2.06,ID,1686625227
528,roma,43.2128,-75.4557,18.38,94,100,2.57,US,1686625457
529,bandar lampung,-5.4254,105.258,28.2,78,51,2.04,ID,1686625457
530,peniche,39.3558,-9.3811,18.09,87,12,5.98,PT,1686625457
531,kristiansund,63.1115,7.732,13.03,76,75,1.03,NO,1686625457
532,ankazoabo,-22.2833,44.5167,12.08,85,0,0.43,MG,1686625457
533,new plymouth,-39.0667,174.0833,15.31,100,1,1.22,NZ,1686625458
534,nadym,65.5333,72.5167,5.77,55,99,7.0,RU,1686625197
535,datong,40.0936,113.2914,24.68,26,2,4.77,CN,1686625458
536,peterborough,52.5736,-0.2478,14.04,94,8,4.12,GB,1686625420
537,puquio,-14.7,-74.1333,9.56,35,60,2.65,PE,1686625458
538,villa ocampo,-28.4875,-59.3551,5.23,50,14,2.42,AR,1686625458
539,san pedro pochutla,15.7333,-96.4667,26.35,84,40,2.22,MX,1686625458
540,dingcheng,32.1272,115.0394,30.87,40,69,2.41,CN,1686625458
541,pishva,35.308,51.7267,29.81,26,7,3.88,IR,1686625459
542,mazatlan,23.2167,-106.4167,28.84,71,0,1.34,MX,1686624662
543,rikaze,29.25,88.8833,15.94,38,38,1.32,CN,1686625459
544,buurhakaba,2.8026,44.0781,21.9,93,97,4.29,SO,1686625459
545,caburan,5.9181,125.6411,30.07,66,30,2.67,PH,1686625459
546,kattivakkam,13.2167,80.3167,32.05,74,51,2.59,IN,1686625460
547,chanika,-5.4167,38.0167,16.89,97,51,0.78,TZ,1686625460
548,gustavia,17.8962,-62.8498,28.01,80,2,4.02,BL,1686625332
549,yangliuqing,39.1375,116.9997,27.97,26,12,4.9,CN,1686625460
550,queenstown,-31.8976,26.8753,6.58,61,55,5.47,ZA,1686625460
551,porto velho,-8.7619,-63.9039,25.03,88,0,0.51,BR,1686625438
552,laguna,38.421,-121.4238,25.08,61,0,4.63,US,1686625460
553,lerwick,60.1545,-1.1494,12.0,93,100,3.08,GB,1686625461
554,bafq,31.6128,55.4107,31.0,19,6,1.52,IR,1686625461
555,hirara,24.8,125.2833,25.92,100,75,8.23,JP,1686625461
556,nova vicosa,-17.8919,-39.3719,22.24,89,0,3.71,BR,1686625461
557,puerto baquerizo moreno,-0.9,-89.6,25.91,82,25,5.27,EC,1686625461
558,khovd,48.0056,91.6419,17.31,36,0,1.62,MN,1686625461
559,limache,-33.0167,-71.2667,4.06,52,0,0.11,CL,1686625461
560,puerto san jose,13.9256,-90.8244,28.02,82,100,2.24,GT,1686625462
561,yenotayevka,47.2456,47.0281,24.8,38,82,2.09,RU,1686625462
562,ghadamis,30.1337,9.5007,28.38,25,0,8.06,LY,1686625341
563,mogok,22.9167,96.5,25.33,66,70,1.98,MM,1686625462
564,lukolela,-1.0605,17.1821,21.11,95,97,1.3,CD,1686625462
565,mariental,-24.6333,17.9667,6.83,57,0,1.11,NA,1686625462
566,danjiangkou,32.5428,111.5086,29.9,44,4,3.21,CN,1686625462
567,molln,53.6333,10.6833,12.34,77,0,0.0,DE,1686625462
568,moyynkum,44.2914,72.9469,23.69,24,81,8.55,KZ,1686625463
569,san felice circeo,41.2372,13.0942,19.76,83,36,2.18,IT,1686625463
